$GPRMC,211448.00,A,4113.17039,N,00142.67072,E,0.644,199.38,270521,,,A*63
$GPRMC,211503.00,A,4113.17077,N,00142.67036,E,0.408,217.69,270521,,,A*6C
$GPRMC,211518.00,A,4113.17090,N,00142.67211,E,0.256,199.18,270521,,,A*66
$GPRMC,211531.00,A,4113.17122,N,00142.67246,E,0.781,175.44,270521,,,A*63
$GPRMC,211546.00,A,4113.17262,N,00142.67237,E,0.260,83.24,270521,,,A*56
$GPRMC,211601.00,A,4113.17147,N,00142.67223,E,0.190,,270521,,,A*78
$GPRMC,211616.00,A,4113.17140,N,00142.67236,E,0.447,110.60,270521,,,A*6A
$GPRMC,211631.00,A,4113.17170,N,00142.67224,E,0.450,139.06,270521,,,A*62
$GPRMC,211646.00,A,4113.17218,N,00142.67223,E,0.508,148.02,270521,,,A*66
$GPRMC,211701.00,A,4113.17215,N,00142.67137,E,0.110,,270521,,,A*73
$GPRMC,211716.00,A,4113.17195,N,00142.67178,E,0.223,249.08,270521,,,A*6F
$GPRMC,211731.00,A,4113.17200,N,00142.67142,E,0.238,287.58,270521,,,A*61
$GPRMC,211746.00,A,4113.17221,N,00142.67097,E,0.576,282.95,270521,,,A*62
$GPRMC,211801.00,A,4113.17217,N,00142.67114,E,0.475,260.32,270521,,,A*62
$GPRMC,211816.00,A,4113.17220,N,00142.67130,E,0.322,254.49,270521,,,A*68
$GPRMC,211831.00,A,4113.17177,N,00142.67157,E,0.435,315.80,270521,,,A*6D
$GPRMC,211846.00,A,4113.17115,N,00142.67151,E,1.352,315.51,270521,,,A*64
$GPRMC,211901.00,A,4113.17080,N,00142.67254,E,0.028,,270521,,,A*7F
$GPRMC,211916.00,A,4113.17084,N,00142.67323,E,0.694,316.27,270521,,,A*62
$GPRMC,211931.00,A,4113.17104,N,00142.67359,E,0.280,296.92,270521,,,A*65
$GPRMC,211946.00,A,4113.17178,N,00142.67362,E,0.708,301.59,270521,,,A*6B
$GPRMC,212001.00,A,4113.17034,N,00142.67731,E,2.152,131.18,270521,,,A*66
$GPRMC,212016.00,A,4113.16926,N,00142.67219,E,0.740,160.02,270521,,,A*6C
$GPRMC,212031.00,A,4113.16934,N,00142.67135,E,0.336,147.83,270521,,,A*6E
$GPRMC,212046.00,A,4113.17078,N,00142.67162,E,0.666,125.57,270521,,,A*61
$GPRMC,212101.00,A,4113.17131,N,00142.67159,E,0.601,86.41,270521,,,A*59
$GPRMC,212116.00,A,4113.17177,N,00142.67125,E,0.334,25.00,270521,,,A*59
$GPRMC,212131.00,A,4113.17169,N,00142.67124,E,0.258,28.01,270521,,,A*55
$GPRMC,212146.00,A,4113.17080,N,00142.67026,E,0.616,342.68,270521,,,A*6E
$GPRMC,212201.00,A,4113.17085,N,00142.67100,E,0.224,287.76,270521,,,A*6C
$GPRMC,212216.00,A,4113.17174,N,00142.67154,E,0.816,298.57,270521,,,A*62
$GPRMC,212231.00,A,4113.17235,N,00142.67237,E,0.216,336.66,270521,,,A*6A
$GPRMC,212246.00,A,4113.17341,N,00142.67360,E,0.928,2.56,270521,,,A*6A
$GPRMC,212301.00,A,4113.17490,N,00142.67545,E,0.977,40.87,270521,,,A*52
$GPRMC,212316.00,A,4113.17249,N,00142.67265,E,0.613,331.22,270521,,,A*64
$GPRMC,212331.00,A,4113.17176,N,00142.67229,E,0.441,275.02,270521,,,A*60
$GPRMC,212346.00,A,4113.17273,N,00142.67167,E,0.563,295.88,270521,,,A*62
$GPRMC,212401.00,A,4113.17238,N,00142.67158,E,0.996,268.76,270521,,,A*60
$GPRMC,212416.00,A,4113.17247,N,00142.67331,E,0.720,273.49,270521,,,A*66
$GPRMC,212431.00,A,4113.17196,N,00142.67337,E,0.309,307.74,270521,,,A*69
$GPRMC,212446.00,A,4113.17153,N,00142.67187,E,0.352,306.84,270521,,,A*69
$GPRMC,212501.00,A,4113.17172,N,00142.67178,E,0.324,307.91,270521,,,A*6C
$GPRMC,212516.00,A,4113.17291,N,00142.67211,E,0.382,330.86,270521,,,A*66
$GPRMC,212531.00,A,4113.17291,N,00142.67149,E,0.428,302.49,270521,,,A*68
$GPRMC,212546.00,A,4113.17266,N,00142.67253,E,0.445,10.18,270521,,,A*57
$GPRMC,212601.00,A,4113.17241,N,00142.67209,E,0.271,23.37,270521,,,A*51
$GPRMC,212616.00,A,4113.17265,N,00142.67192,E,0.148,,270521,,,A*72
$GPRMC,212631.00,A,4113.17212,N,00142.67145,E,0.306,339.60,270521,,,A*64
$GPRMC,212646.00,A,4113.17137,N,00142.67156,E,0.689,356.86,270521,,,A*61
$GPRMC,212701.00,A,4113.17196,N,00142.67141,E,1.557,5.26,270521,,,A*60
$GPRMC,212716.00,A,4113.17193,N,00142.67321,E,0.896,32.35,270521,,,A*50
$GPRMC,212731.00,A,4113.17117,N,00142.67413,E,1.073,65.21,270521,,,A*5A
$GPRMC,212746.00,A,4113.17182,N,00142.67177,E,0.518,114.63,270521,,,A*69
$GPRMC,212801.00,A,4113.17125,N,00142.67407,E,1.277,125.80,270521,,,A*6A
$GPRMC,212816.00,A,4113.17111,N,00142.67284,E,1.644,125.37,270521,,,A*6E
$GPRMC,212831.00,A,4113.17009,N,00142.67169,E,0.333,251.39,270521,,,A*69
$GPRMC,212846.00,A,4113.16863,N,00142.67232,E,0.750,146.93,270521,,,A*65
$GPRMC,212901.00,A,4113.17119,N,00142.67121,E,1.162,78.95,270521,,,A*5F
$GPRMC,212916.00,A,4113.17313,N,00142.67264,E,0.421,72.90,270521,,,A*5F
$GPRMC,212931.00,A,4113.17430,N,00142.67338,E,0.454,83.68,270521,,,A*5F
$GPRMC,212946.00,A,4113.17522,N,00142.67273,E,0.545,286.81,270521,,,A*62
$GPRMC,213001.00,A,4113.17369,N,00142.67244,E,0.133,,270521,,,A*7A
$GPRMC,213016.00,A,4113.17616,N,00142.67299,E,1.105,329.83,270521,,,A*68
$GPRMC,213031.00,A,4113.17473,N,00142.67215,E,0.825,346.78,270521,,,A*6F
$GPRMC,213046.00,A,4113.17317,N,00142.67112,E,0.084,,270521,,,A*7D
$GPRMC,213101.00,A,4113.17174,N,00142.67199,E,0.383,5.43,270521,,,A*63
$GPRMC,213116.00,A,4113.17434,N,00142.67545,E,0.593,58.56,270521,,,A*5A
$GPRMC,213131.00,A,4113.17346,N,00142.67225,E,0.551,205.66,270521,,,A*6B
$GPRMC,213146.00,A,4113.17123,N,00142.67002,E,1.432,197.08,270521,,,A*68
$GPRMC,213201.00,A,4113.17641,N,00142.67240,E,0.369,11.17,270521,,,A*56
$GPRMC,213216.00,A,4113.17411,N,00142.67299,E,0.842,151.19,270521,,,A*6A
$GPRMC,213231.00,A,4113.17070,N,00142.67166,E,0.444,151.08,270521,,,A*65
$GPRMC,213246.00,A,4113.17485,N,00142.67326,E,2.650,358.10,270521,,,A*6A
$GPRMC,213301.00,V,,,,,,,270521,,,N*7C
$GPRMC,213316.00,A,4113.17440,N,00142.67078,E,0.691,321.87,270521,,,A*60
$GPRMC,213338.00,A,4113.17162,N,00142.67117,E,0.917,299.83,270521,,,A*66
$GPRMC,213353.00,A,4113.17182,N,00142.67084,E,0.560,312.45,270521,,,A*6A
$GPRMC,213408.00,A,4113.17062,N,00142.67169,E,0.642,258.92,270521,,,A*68
$GPRMC,213433.00,A,4113.17192,N,00142.67129,E,0.196,192.29,270521,,,A*61
$GPRMC,213448.00,A,4113.17177,N,00142.67098,E,0.490,204.92,270521,,,A*62
$GPRMC,213503.00,A,4113.17106,N,00142.67245,E,0.717,182.21,270521,,,A*61
$GPRMC,213518.00,A,4113.17133,N,00142.67349,E,0.388,215.30,270521,,,A*6F
$GPRMC,213533.00,A,4113.17210,N,00142.67297,E,0.447,229.98,270521,,,A*6F
$GPRMC,213548.00,A,4113.17201,N,00142.67220,E,0.398,226.60,270521,,,A*62
$GPRMC,213603.00,A,4113.17341,N,00142.67051,E,0.270,247.70,270521,,,A*6E
$GPRMC,213618.00,A,4113.17276,N,00142.66986,E,0.698,202.97,270521,,,A*69
$GPRMC,213633.00,A,4113.17258,N,00142.67031,E,0.372,229.70,270521,,,A*69
$GPRMC,213648.00,A,4113.17152,N,00142.67262,E,0.355,212.64,270521,,,A*60
$GPRMC,213703.00,A,4113.17101,N,00142.67293,E,0.342,198.20,270521,,,A*61
$GPRMC,213718.00,A,4113.17154,N,00142.67425,E,0.454,168.32,270521,,,A*6C
$GPRMC,213733.00,A,4113.17275,N,00142.67300,E,0.475,182.56,270521,,,A*60
$GPRMC,213748.00,A,4113.17335,N,00142.67227,E,0.901,128.84,270521,,,A*6C
$GPRMC,213803.00,A,4113.17322,N,00142.66986,E,0.548,175.98,270521,,,A*6F
$GPRMC,213818.00,A,4113.17303,N,00142.66959,E,0.148,,270521,,,A*7C
$GPRMC,213833.00,A,4113.17254,N,00142.67168,E,0.714,247.57,270521,,,A*6F
$GPRMC,213848.00,A,4113.17224,N,00142.67429,E,0.329,293.17,270521,,,A*63
$GPRMC,213903.00,A,4113.17384,N,00142.67254,E,0.853,296.78,270521,,,A*60
$GPRMC,213918.00,A,4113.17386,N,00142.67112,E,1.118,275.09,270521,,,A*65
$GPRMC,213933.00,A,4113.17303,N,00142.67119,E,1.086,278.35,270521,,,A*6E
$GPRMC,213948.00,A,4113.17261,N,00142.67264,E,0.142,,270521,,,A*73
$GPRMC,214003.00,A,4113.17342,N,00142.67233,E,0.206,264.52,270521,,,A*6A
$GPRMC,214018.00,A,4113.17370,N,00142.67362,E,0.712,277.54,270521,,,A*60
$GPRMC,214033.00,A,4113.17432,N,00142.67332,E,0.566,301.48,270521,,,A*61
$GPRMC,214048.00,A,4113.17395,N,00142.67382,E,0.405,333.57,270521,,,A*67
$GPRMC,,V,,,,,,,,,,N*53
$GPRMC,,V,,,,,,,,,,N*53
$GPRMC,,V,,,,,,,,,,N*53
$GPRMC,,V,,,,,,,,,,N*53
$GPRMC,,V,,,,,,,,,,N*53
$GPRMC,,V,,,,,,,,,,N*53
$GPRMC,,V,,,,,,,,,,N*53
$GPRMC,,V,,,,,,,,,,N*53
$GPRMC,214320.00,V,,,,,,,,,,N*7B
$GPRMC,214335.00,V,,,,,,,270521,,,N*7C
$GPRMC,214350.00,V,,,,,,,270521,,,N*7F
$GPRMC,214405.00,V,,,,,,,270521,,,N*78
$GPRMC,214420.00,V,,,,,,,270521,,,N*7F
$GPRMC,214434.51,V,,,,,,,270521,,,N*7E
$GPRMC,214450.00,V,,,,,,,270521,,,N*78
$GPRMC,214505.00,V,,,,,,,270521,,,N*79
$GPRMC,214520.00,V,,,,,,,270521,,,N*7E
$GPRMC,214535.00,V,,,,,,,270521,,,N*7A
$GPRMC,214550.00,V,,,,,,,270521,,,N*79
$GPRMC,214605.00,V,,,,,,,270521,,,N*7A
$GPRMC,214620.00,V,,,,,,,270521,,,N*7D
$GPRMC,214635.00,V,,,,,,,270521,,,N*79
$GPRMC,214650.00,V,,,,,,,270521,,,N*7A
$GPRMC,214705.00,A,4113.16249,N,00142.66211,E,6.323,55.00,270521,,,A*56
$GPRMC,214720.00,A,4113.16928,N,00142.67310,E,0.698,142.62,270521,,,A*6C
$GPRMC,214735.00,A,4113.16924,N,00142.67014,E,0.635,133.41,270521,,,A*63
$GPRMC,214750.00,A,4113.16840,N,00142.66988,E,0.609,160.89,270521,,,A*63
$GPRMC,214805.00,A,4113.16920,N,00142.66842,E,0.593,260.97,270521,,,A*60
$GPRMC,214820.00,A,4113.16930,N,00142.66626,E,1.440,242.16,270521,,,A*6D
$GPRMC,214835.00,A,4113.16911,N,00142.66743,E,1.295,10.01,270521,,,A*55
$GPRMC,214850.00,A,4113.16177,N,00142.65598,E,0.503,340.46,270521,,,A*65
$GPRMC,214905.00,A,4113.16027,N,00142.65040,E,0.388,5.21,270521,,,A*66
$GPRMC,214920.00,A,4113.15862,N,00142.64720,E,1.578,304.32,270521,,,A*63
$GPRMC,214935.00,A,4113.15722,N,00142.64475,E,3.435,49.82,270521,,,A*54
$GPRMC,214950.00,A,4113.15896,N,00142.64682,E,1.339,58.16,270521,,,A*59
$GPRMC,215005.00,A,4113.15328,N,00142.63779,E,1.639,137.27,270521,,,A*62
$GPRMC,215020.00,A,4113.15007,N,00142.63658,E,1.913,76.37,270521,,,A*5B
$GPRMC,215035.00,V,,,,,,,270521,,,N*7E
$GPRMC,215050.00,A,4113.15806,N,00142.65483,E,0.435,58.48,270521,,,A*5B
$GPRMC,215105.00,A,4113.16519,N,00142.66595,E,0.587,98.79,270521,,,A*59
$GPRMC,215116.00,A,4113.16545,N,00142.66810,E,0.672,124.90,270521,,,A*6A
$GPRMC,215131.00,A,4113.16582,N,00142.66821,E,0.513,333.44,270521,,,A*6F
$GPRMC,215146.00,A,4113.16930,N,00142.67136,E,1.083,345.09,270521,,,A*61
$GPRMC,215201.00,A,4113.17135,N,00142.67168,E,0.546,347.64,270521,,,A*62
$GPRMC,215216.00,A,4113.17042,N,00142.67174,E,0.733,334.38,270521,,,A*65
$GPRMC,215231.00,A,4113.16946,N,00142.67206,E,0.550,184.66,270521,,,A*6F
$GPRMC,215246.00,A,4113.17137,N,00142.67328,E,0.583,10.82,270521,,,A*55
$GPRMC,215301.00,A,4113.17427,N,00142.67498,E,0.481,354.50,270521,,,A*60
$GPRMC,215316.00,A,4113.17588,N,00142.67623,E,0.404,356.24,270521,,,A*6C
$GPRMC,215331.00,A,4113.17744,N,00142.67513,E,0.886,10.49,270521,,,A*57
$GPRMC,215346.00,A,4113.17608,N,00142.67483,E,1.064,47.89,270521,,,A*5D
$GPRMC,215401.00,A,4113.17875,N,00142.67652,E,0.356,31.51,270521,,,A*54
$GPRMC,215416.00,A,4113.17801,N,00142.67664,E,0.629,51.63,270521,,,A*5E
$GPRMC,215431.00,A,4113.17704,N,00142.67500,E,0.587,14.09,270521,,,A*5A
$GPRMC,215446.00,A,4113.17580,N,00142.67317,E,1.487,43.26,270521,,,A*5B
$GPRMC,215501.00,A,4113.17531,N,00142.67358,E,0.518,84.58,270521,,,A*5C
$GPRMC,215516.00,A,4113.17454,N,00142.67243,E,0.149,,270521,,,A*7C
$GPRMC,215531.00,A,4113.17391,N,00142.67203,E,1.288,73.92,270521,,,A*5D
$GPRMC,215546.00,A,4113.17397,N,00142.67560,E,1.645,106.89,270521,,,A*65
$GPRMC,215601.00,A,4113.17274,N,00142.67451,E,0.589,81.69,270521,,,A*58
$GPRMC,215616.00,A,4113.17327,N,00142.67244,E,0.544,96.20,270521,,,A*51
$GPRMC,215631.00,A,4113.17463,N,00142.67285,E,0.914,91.40,270521,,,A*56
$GPRMC,215646.00,A,4113.17348,N,00142.67277,E,1.897,142.58,270521,,,A*68
$GPRMC,215701.00,A,4113.17437,N,00142.67339,E,0.490,102.93,270521,,,A*67
$GPRMC,215716.00,A,4113.17385,N,00142.67490,E,1.433,99.68,270521,,,A*54
$GPRMC,215731.00,A,4113.17428,N,00142.67273,E,1.776,30.18,270521,,,A*5C
$GPRMC,215746.00,A,4113.17198,N,00142.67095,E,0.536,209.64,270521,,,A*6C
$GPRMC,215801.00,A,4113.17197,N,00142.67156,E,0.782,87.19,270521,,,A*52
$GPRMC,215816.00,A,4113.17235,N,00142.67197,E,0.211,99.05,270521,,,A*5F
$GPRMC,215831.00,A,4113.17241,N,00142.67341,E,0.645,118.72,270521,,,A*6D
$GPRMC,215846.00,A,4113.17272,N,00142.67327,E,0.317,83.55,270521,,,A*59
$GPRMC,215901.00,A,4113.17106,N,00142.67279,E,0.382,99.42,270521,,,A*50
$GPRMC,215916.00,A,4113.16969,N,00142.67297,E,0.243,213.74,270521,,,A*6F
$GPRMC,215931.00,A,4113.17047,N,00142.67264,E,0.184,,270521,,,A*77
$GPRMC,215946.00,A,4113.17079,N,00142.67207,E,1.007,281.85,270521,,,A*6C
$GPRMC,220001.00,A,4113.17149,N,00142.67191,E,0.555,321.96,270521,,,A*64
$GPRMC,220016.00,A,4113.17159,N,00142.67291,E,0.533,328.15,270521,,,A*62
$GPRMC,220031.00,A,4113.17179,N,00142.67233,E,0.323,342.29,270521,,,A*69
$GPRMC,220046.00,A,4113.17193,N,00142.67197,E,0.596,325.06,270521,,,A*64
$GPRMC,220101.00,A,4113.17269,N,00142.67352,E,0.595,310.62,270521,,,A*6C
$GPRMC,220116.00,A,4113.17224,N,00142.67267,E,0.256,311.32,270521,,,A*68
$GPRMC,220131.00,A,4113.17194,N,00142.67284,E,0.196,298.85,270521,,,A*6B
$GPRMC,220146.00,A,4113.17266,N,00142.67265,E,0.367,330.45,270521,,,A*69
$GPRMC,220201.00,A,4113.17091,N,00142.67082,E,1.364,294.08,270521,,,A*6C
$GPRMC,220216.00,A,4113.17137,N,00142.67255,E,0.879,344.91,270521,,,A*65
$GPRMC,220231.00,A,4113.17238,N,00142.67204,E,0.528,332.80,270521,,,A*60
$GPRMC,220246.00,A,4113.17333,N,00142.67240,E,0.753,13.57,270521,,,A*5E
$GPRMC,220301.00,A,4113.17130,N,00142.67219,E,0.177,,270521,,,A*7F
$GPRMC,220316.00,A,4113.17138,N,00142.67240,E,0.576,39.56,270521,,,A*5F
$GPRMC,220331.00,A,4113.17159,N,00142.67256,E,0.299,24.16,270521,,,A*54
$GPRMC,220346.00,A,4113.17137,N,00142.67228,E,0.354,359.21,270521,,,A*68
$GPRMC,220401.00,A,4113.17197,N,00142.67395,E,0.188,,270521,,,A*70
$GPRMC,220416.00,A,4113.17218,N,00142.67340,E,0.255,346.20,270521,,,A*64
$GPRMC,220431.00,A,4113.17184,N,00142.67440,E,1.172,18.83,270521,,,A*56
$GPRMC,220446.00,A,4113.17269,N,00142.67495,E,0.143,,270521,,,A*71
$GPRMC,220501.00,A,4113.17264,N,00142.67437,E,0.251,31.65,270521,,,A*59
$GPRMC,220516.00,A,4113.17170,N,00142.67304,E,0.137,,270521,,,A*72
$GPRMC,220531.00,A,4113.17155,N,00142.67270,E,0.792,357.20,270521,,,A*66
$GPRMC,220546.00,A,4113.17118,N,00142.67265,E,0.589,309.18,270521,,,A*63
$GPRMC,220601.00,A,4113.17136,N,00142.67358,E,0.985,312.38,270521,,,A*68
$GPRMC,220616.00,A,4113.17029,N,00142.67297,E,0.634,332.19,270521,,,A*67
$GPRMC,220631.00,A,4113.17161,N,00142.67132,E,0.755,330.16,270521,,,A*68
$GPRMC,220646.00,A,4113.17130,N,00142.67213,E,0.561,323.43,270521,,,A*6B
$GPRMC,220701.00,A,4113.17177,N,00142.67193,E,0.486,329.42,270521,,,A*62
$GPRMC,220716.00,A,4113.17241,N,00142.67163,E,0.217,306.91,270521,,,A*60
$GPRMC,220731.00,A,4113.17097,N,00142.67176,E,0.553,330.36,270521,,,A*67
$GPRMC,220746.00,A,4113.17010,N,00142.67212,E,0.467,304.30,270521,,,A*6E
$GPRMC,220801.00,A,4113.16988,N,00142.67175,E,0.502,277.52,270521,,,A*6A
$GPRMC,220816.00,A,4113.16800,N,00142.67153,E,0.900,221.94,270521,,,A*6E
$GPRMC,220831.00,A,4113.16968,N,00142.67159,E,0.340,256.47,270521,,,A*6E
$GPRMC,220846.00,A,4113.16996,N,00142.67140,E,0.394,214.11,270521,,,A*6B
$GPRMC,220901.00,A,4113.17082,N,00142.67285,E,0.401,155.89,270521,,,A*62
$GPRMC,220916.00,A,4113.17195,N,00142.67369,E,0.240,316.61,270521,,,A*60
$GPRMC,220931.00,A,4113.17402,N,00142.67278,E,0.497,332.58,270521,,,A*6F
$GPRMC,220946.00,A,4113.17401,N,00142.67235,E,0.056,,270521,,,A*7D
$GPRMC,221001.00,A,4113.17319,N,00142.67375,E,0.134,,270521,,,A*78
$GPRMC,221016.00,A,4113.17256,N,00142.67463,E,1.100,235.41,270521,,,A*6D
$GPRMC,221031.00,A,4113.17309,N,00142.67357,E,0.169,,270521,,,A*72
$GPRMC,221046.00,A,4113.17381,N,00142.67357,E,0.139,,270521,,,A*77
$GPRMC,221101.00,A,4113.17281,N,00142.67287,E,0.250,167.85,270521,,,A*67
$GPRMC,221116.00,A,4113.17194,N,00142.67257,E,0.756,190.66,270521,,,A*6D
$GPRMC,221131.00,A,4113.17176,N,00142.67390,E,1.444,213.85,270521,,,A*6A
$GPRMC,221146.00,A,4113.17166,N,00142.67305,E,0.648,234.99,270521,,,A*60
$GPRMC,221201.00,A,4113.16976,N,00142.67315,E,0.461,207.75,270521,,,A*62
$GPRMC,221216.00,A,4113.17033,N,00142.67340,E,0.304,193.11,270521,,,A*65
$GPRMC,221231.00,A,4113.17146,N,00142.67348,E,0.113,,270521,,,A*7A
$GPRMC,221246.00,A,4113.17131,N,00142.67347,E,0.408,201.88,270521,,,A*67
$GPRMC,221301.00,A,4113.17125,N,00142.67453,E,0.077,,270521,,,A*73
$GPRMC,221316.00,A,4113.17003,N,00142.67485,E,0.089,,270521,,,A*7A
$GPRMC,221331.00,A,4113.17216,N,00142.67367,E,0.320,227.35,270521,,,A*6D
$GPRMC,221346.00,A,4113.17133,N,00142.67329,E,0.106,,270521,,,A*7A
$GPRMC,221401.00,A,4113.17112,N,00142.67278,E,0.463,214.16,270521,,,A*60
$GPRMC,221416.00,A,4113.17098,N,00142.67354,E,0.373,203.00,270521,,,A*6D
$GPRMC,221431.00,A,4113.17104,N,00142.67284,E,0.841,211.28,270521,,,A*63
$GPRMC,221446.00,A,4113.17083,N,00142.67390,E,0.171,,270521,,,A*75
$GPRMC,221501.00,A,4113.16973,N,00142.67492,E,0.423,226.34,270521,,,A*68
$GPRMC,221516.00,A,4113.17006,N,00142.67574,E,0.384,219.40,270521,,,A*68
$GPRMC,221531.00,A,4113.17304,N,00142.67404,E,0.539,257.67,270521,,,A*65
$GPRMC,221546.00,A,4113.17185,N,00142.67159,E,0.574,267.63,270521,,,A*6D
$GPRMC,221601.00,A,4113.17210,N,00142.67321,E,0.379,266.41,270521,,,A*65
$GPRMC,221616.00,A,4113.17221,N,00142.67430,E,0.459,259.39,270521,,,A*60
$GPRMC,221631.00,A,4113.17204,N,00142.67630,E,0.486,273.70,270521,,,A*67
$GPRMC,221646.00,A,4113.17045,N,00142.67728,E,0.205,219.06,270521,,,A*68
$GPRMC,221701.00,A,4113.17163,N,00142.67717,E,0.149,,270521,,,A*7A
$GPRMC,221716.00,A,4113.17280,N,00142.67615,E,0.744,205.97,270521,,,A*6D
$GPRMC,221731.00,A,4113.17190,N,00142.67553,E,0.129,,270521,,,A*71
$GPRMC,221746.00,A,4113.17213,N,00142.67560,E,0.240,230.38,270521,,,A*61
$GPRMC,221801.00,A,4113.17236,N,00142.67739,E,0.076,,270521,,,A*77
$GPRMC,221816.00,A,4113.17229,N,00142.67795,E,0.721,187.01,270521,,,A*6D
$GPRMC,221831.00,A,4113.17331,N,00142.67777,E,0.183,,270521,,,A*73
$GPRMC,221846.00,A,4113.17475,N,00142.67555,E,0.335,235.68,270521,,,A*6D
$GPRMC,221901.00,A,4113.17435,N,00142.67473,E,1.197,221.73,270521,,,A*6A
$GPRMC,221916.00,A,4113.17331,N,00142.67563,E,0.257,226.54,270521,,,A*63
$GPRMC,221931.00,A,4113.17253,N,00142.67726,E,0.403,219.64,270521,,,A*68
$GPRMC,221946.00,A,4113.17324,N,00142.67843,E,0.249,217.94,270521,,,A*6C
$GPRMC,222001.00,A,4113.17281,N,00142.67544,E,0.463,230.55,270521,,,A*67
$GPRMC,222016.00,A,4113.17251,N,00142.67405,E,0.702,205.56,270521,,,A*69
$GPRMC,222031.00,A,4113.17318,N,00142.67132,E,0.294,251.83,270521,,,A*62
$GPRMC,222046.00,A,4113.17301,N,00142.67370,E,0.243,213.69,270521,,,A*66
$GPRMC,222101.00,A,4113.17217,N,00142.67388,E,0.074,,270521,,,A*72
$GPRMC,222116.00,A,4113.17123,N,00142.67320,E,0.038,,270521,,,A*7A
$GPRMC,222131.00,A,4113.17161,N,00142.67377,E,0.127,,270521,,,A*74
$GPRMC,222146.00,A,4113.17159,N,00142.67229,E,0.179,,270521,,,A*7E
$GPRMC,222201.00,A,4113.17022,N,00142.67486,E,0.338,168.76,270521,,,A*67
$GPRMC,222216.00,A,4113.17104,N,00142.67300,E,0.598,234.24,270521,,,A*6C
$GPRMC,222231.00,A,4113.17156,N,00142.67143,E,0.090,,270521,,,A*7B
$GPRMC,222246.00,A,4113.17089,N,00142.67276,E,0.454,237.99,270521,,,A*69
$GPRMC,222301.00,A,4113.16955,N,00142.67656,E,0.053,,270521,,,A*7F
$GPRMC,222316.00,A,4113.16947,N,00142.67762,E,0.550,180.94,270521,,,A*60
$GPRMC,222331.00,A,4113.16899,N,00142.67718,E,0.614,189.48,270521,,,A*61
$GPRMC,222346.00,A,4113.16908,N,00142.67571,E,0.201,203.85,270521,,,A*65
$GPRMC,222401.00,A,4113.16774,N,00142.67602,E,0.683,188.91,270521,,,A*68
$GPRMC,222416.00,A,4113.16786,N,00142.67497,E,0.602,235.62,270521,,,A*6D
$GPRMC,222431.00,A,4113.16997,N,00142.67394,E,0.640,222.25,270521,,,A*61
$GPRMC,222446.00,A,4113.16911,N,00142.67424,E,0.819,131.26,270521,,,A*63
$GPRMC,222501.00,A,4113.16903,N,00142.67470,E,0.304,296.19,270521,,,A*66
$GPRMC,222516.00,A,4113.16918,N,00142.67652,E,0.532,299.97,270521,,,A*62
$GPRMC,222531.00,A,4113.16850,N,00142.68065,E,1.984,115.75,270521,,,A*6C
$GPRMC,222546.00,A,4113.17061,N,00142.67437,E,0.419,113.74,270521,,,A*64
$GPRMC,222601.00,A,4113.17184,N,00142.67545,E,0.449,89.75,270521,,,A*5C
$GPRMC,222616.00,A,4113.17329,N,00142.67347,E,0.412,145.66,270521,,,A*66
$GPRMC,222631.00,A,4113.17155,N,00142.67874,E,0.954,148.51,270521,,,A*67
$GPRMC,222646.00,A,4113.17036,N,00142.68280,E,0.703,140.70,270521,,,A*6A
$GPRMC,222701.00,A,4113.17213,N,00142.67812,E,1.720,215.40,270521,,,A*63
$GPRMC,222716.00,A,4113.17771,N,00142.67173,E,1.078,327.81,270521,,,A*6D
$GPRMC,222731.00,A,4113.17937,N,00142.66945,E,0.939,248.48,270521,,,A*68
$GPRMC,222746.00,A,4113.17354,N,00142.67599,E,0.902,222.08,270521,,,A*6B
$GPRMC,222801.00,A,4113.17470,N,00142.67374,E,0.397,209.95,270521,,,A*68
$GPRMC,222816.00,A,4113.17598,N,00142.67010,E,0.083,,270521,,,A*77
$GPRMC,222831.00,A,4113.17310,N,00142.67493,E,0.259,210.73,270521,,,A*67
$GPRMC,222846.00,A,4113.17191,N,00142.67464,E,0.738,232.61,270521,,,A*65
$GPRMC,222901.00,A,4113.17207,N,00142.67352,E,0.829,240.86,270521,,,A*6A
$GPRMC,222916.00,A,4113.16967,N,00142.67503,E,0.858,196.90,270521,,,A*6B
$GPRMC,222931.00,A,4113.17093,N,00142.67195,E,0.352,213.65,270521,,,A*63
$GPRMC,222946.00,A,4113.17236,N,00142.66916,E,0.762,227.09,270521,,,A*66
$GPRMC,223001.00,A,4113.16949,N,00142.67575,E,1.056,115.65,270521,,,A*6E
$GPRMC,223016.00,A,4113.16868,N,00142.67546,E,0.731,155.90,270521,,,A*63
$GPRMC,223031.00,A,4113.17049,N,00142.67249,E,0.522,181.38,270521,,,A*6F
$GPRMC,223046.00,A,4113.17097,N,00142.67177,E,0.144,,270521,,,A*7B
$GPRMC,223101.00,A,4113.17190,N,00142.67250,E,0.508,220.64,270521,,,A*69
$GPRMC,223116.00,A,4113.17072,N,00142.67414,E,0.420,205.60,270521,,,A*6C
$GPRMC,223131.00,A,4113.17047,N,00142.67349,E,1.718,189.12,270521,,,A*6B
$GPRMC,223146.00,A,4113.17244,N,00142.66989,E,0.392,210.41,270521,,,A*6F
$GPRMC,223201.00,A,4113.17193,N,00142.67125,E,0.713,211.66,270521,,,A*60
$GPRMC,223216.00,A,4113.17135,N,00142.67473,E,0.392,222.75,270521,,,A*63
$GPRMC,223231.00,A,4113.17161,N,00142.67571,E,0.128,,270521,,,A*79
$GPRMC,223246.00,A,4113.17250,N,00142.67279,E,0.400,236.88,270521,,,A*61
$GPRMC,223301.00,A,4113.17372,N,00142.66905,E,0.084,,270521,,,A*72
$GPRMC,223316.00,A,4113.17231,N,00142.67390,E,0.244,208.92,270521,,,A*64
$GPRMC,223331.00,A,4113.17414,N,00142.67184,E,0.096,,270521,,,A*75
$GPRMC,223346.00,A,4113.17465,N,00142.67059,E,0.663,269.59,270521,,,A*61
$GPRMC,223401.00,A,4113.17461,N,00142.67134,E,0.265,257.12,270521,,,A*6B
$GPRMC,223416.00,A,4113.17336,N,00142.67267,E,0.229,281.02,270521,,,A*6F
$GPRMC,223431.00,A,4113.17713,N,00142.67127,E,0.138,,270521,,,A*7A
$GPRMC,223446.00,A,4113.17643,N,00142.67372,E,0.234,270.42,270521,,,A*6E
$GPRMC,223501.00,A,4113.17596,N,00142.67300,E,0.166,,270521,,,A*7B
$GPRMC,223516.00,A,4113.17567,N,00142.67296,E,0.374,252.42,270521,,,A*61
$GPRMC,223531.00,A,4113.17532,N,00142.67273,E,0.061,,270521,,,A*75
$GPRMC,223546.00,A,4113.17679,N,00142.67471,E,0.161,,270521,,,A*7C
$GPRMC,223601.00,A,4113.17631,N,00142.67594,E,0.247,258.49,270521,,,A*61
$GPRMC,223616.00,A,4113.17563,N,00142.67512,E,0.153,,270521,,,A*77
$GPRMC,223631.00,A,4113.17565,N,00142.67543,E,0.138,,270521,,,A*7D
$GPRMC,223646.00,A,4113.17500,N,00142.67580,E,0.260,267.26,270521,,,A*66
$GPRMC,223701.00,A,4113.17655,N,00142.67347,E,0.082,,270521,,,A*7D
$GPRMC,223716.00,A,4113.17693,N,00142.67293,E,0.065,,270521,,,A*70
$GPRMC,223731.00,A,4113.17687,N,00142.67326,E,0.499,265.99,270521,,,A*67
$GPRMC,223746.00,A,4113.17713,N,00142.67394,E,0.397,273.99,270521,,,A*6C
$GPRMC,223801.00,A,4113.17659,N,00142.67546,E,0.081,,270521,,,A*7A
$GPRMC,223816.00,A,4113.17558,N,00142.67555,E,0.162,,270521,,,A*70
$GPRMC,223831.00,A,4113.17598,N,00142.67438,E,0.090,,270521,,,A*7F
$GPRMC,223846.00,A,4113.17805,N,00142.67367,E,0.218,286.59,270521,,,A*67
$GPRMC,223901.00,A,4113.17855,N,00142.67543,E,0.063,,270521,,,A*70
$GPRMC,223916.00,A,4113.17845,N,00142.67557,E,0.113,,270521,,,A*74
$GPRMC,223931.00,A,4113.17763,N,00142.67514,E,0.150,,270521,,,A*7A
$GPRMC,223946.00,A,4113.17830,N,00142.67240,E,0.213,269.07,270521,,,A*65
$GPRMC,224001.00,A,4113.17867,N,00142.67457,E,0.321,292.59,270521,,,A*65
$GPRMC,224016.00,A,4113.17954,N,00142.67435,E,0.479,266.12,270521,,,A*68
$GPRMC,224031.00,A,4113.17953,N,00142.67329,E,0.097,,270521,,,A*7B
$GPRMC,224046.00,A,4113.18077,N,00142.67242,E,0.485,288.17,270521,,,A*6A
$GPRMC,224101.00,A,4113.17977,N,00142.67400,E,0.231,332.53,270521,,,A*67
$GPRMC,224116.00,A,4113.17839,N,00142.67493,E,0.417,352.30,270521,,,A*61
$GPRMC,224131.00,A,4113.17756,N,00142.67376,E,0.736,357.02,270521,,,A*6A
$GPRMC,224146.00,A,4113.17764,N,00142.67384,E,0.073,,270521,,,A*7D
$GPRMC,224201.00,A,4113.17653,N,00142.67436,E,0.208,346.63,270521,,,A*62
$GPRMC,224216.00,A,4113.17632,N,00142.67498,E,0.137,,270521,,,A*72
$GPRMC,224231.00,A,4113.17694,N,00142.67456,E,0.106,,270521,,,A*7B
$GPRMC,224246.00,A,4113.17505,N,00142.67651,E,0.160,,270521,,,A*75
$GPRMC,224301.00,A,4113.17693,N,00142.67428,E,0.534,307.18,270521,,,A*61
$GPRMC,224316.00,A,4113.17799,N,00142.67466,E,0.259,332.02,270521,,,A*67
$GPRMC,224331.00,A,4113.17623,N,00142.67708,E,0.807,37.80,270521,,,A*54
$GPRMC,224346.00,A,4113.17522,N,00142.67708,E,0.203,20.80,270521,,,A*5E
$GPRMC,224401.00,A,4113.17459,N,00142.67561,E,0.402,341.89,270521,,,A*60
$GPRMC,224416.00,A,4113.17358,N,00142.67575,E,0.271,332.58,270521,,,A*6F
$GPRMC,224431.00,A,4113.17272,N,00142.67591,E,0.143,,270521,,,A*7A
$GPRMC,224446.00,A,4113.17414,N,00142.67458,E,0.271,317.58,270521,,,A*6C
$GPRMC,224501.00,A,4113.17449,N,00142.67407,E,0.276,302.63,270521,,,A*67
$GPRMC,224516.00,A,4113.17199,N,00142.67415,E,0.010,,270521,,,A*72
$GPRMC,224531.00,A,4113.17097,N,00142.67385,E,0.348,268.94,270521,,,A*67
$GPRMC,224546.00,A,4113.17193,N,00142.67317,E,0.153,,270521,,,A*7E
$GPRMC,224601.00,A,4113.17194,N,00142.67350,E,0.309,319.69,270521,,,A*6D
$GPRMC,224616.00,A,4113.17151,N,00142.67279,E,0.125,,270521,,,A*7E
$GPRMC,224631.00,A,4113.17076,N,00142.67370,E,0.272,285.95,270521,,,A*6B
$GPRMC,224646.00,A,4113.17182,N,00142.67381,E,0.203,298.72,270521,,,A*6C
$GPRMC,224701.00,A,4113.17142,N,00142.67386,E,0.279,288.80,270521,,,A*64
$GPRMC,224716.00,A,4113.16972,N,00142.67373,E,0.140,,270521,,,A*7F
$GPRMC,224731.00,A,4113.16948,N,00142.67328,E,0.158,,270521,,,A*74
$GPRMC,224746.00,A,4113.16882,N,00142.67389,E,0.298,293.96,270521,,,A*6E
$GPRMC,224801.00,A,4113.16873,N,00142.67388,E,0.443,287.97,270521,,,A*69
$GPRMC,224816.00,A,4113.17057,N,00142.67335,E,0.580,282.31,270521,,,A*61
$GPRMC,224831.00,A,4113.17287,N,00142.67202,E,0.218,276.45,270521,,,A*60
$GPRMC,224846.00,A,4113.17231,N,00142.67250,E,0.346,264.20,270521,,,A*60
$GPRMC,224901.00,A,4113.17058,N,00142.67208,E,0.093,,270521,,,A*75
$GPRMC,224916.00,A,4113.17014,N,00142.67278,E,0.252,256.92,270521,,,A*67
$GPRMC,224931.00,A,4113.17059,N,00142.67405,E,0.468,235.41,270521,,,A*63
$GPRMC,224946.00,A,4113.17294,N,00142.67401,E,0.010,,270521,,,A*70
$GPRMC,225001.00,A,4113.17477,N,00142.67345,E,0.339,295.89,270521,,,A*6E
$GPRMC,225016.00,A,4113.17520,N,00142.67254,E,0.019,,270521,,,A*7A
$GPRMC,225031.00,A,4113.17285,N,00142.67338,E,0.220,310.77,270521,,,A*68
$GPRMC,225046.00,A,4113.17226,N,00142.67410,E,0.268,260.48,270521,,,A*6A
$GPRMC,225101.00,A,4113.17348,N,00142.67473,E,0.196,294.65,270521,,,A*62
$GPRMC,225116.00,A,4113.17304,N,00142.67611,E,0.306,284.28,270521,,,A*69
$GPRMC,225131.00,A,4113.17393,N,00142.67444,E,0.319,265.38,270521,,,A*60
$GPRMC,225146.00,A,4113.17489,N,00142.67312,E,0.550,302.10,270521,,,A*69
$GPRMC,225201.00,A,4113.17541,N,00142.67258,E,0.357,310.48,270521,,,A*6C
$GPRMC,225216.00,A,4113.17317,N,00142.67182,E,0.277,287.33,270521,,,A*6B
$GPRMC,225231.00,A,4113.17112,N,00142.67228,E,0.107,,270521,,,A*7D
$GPRMC,225246.00,A,4113.16882,N,00142.67525,E,0.500,277.43,270521,,,A*6E
$GPRMC,225301.00,A,4113.16830,N,00142.67822,E,0.297,297.74,270521,,,A*6C
$GPRMC,225316.00,A,4113.16899,N,00142.67685,E,0.385,306.17,270521,,,A*64
$GPRMC,225331.00,A,4113.16972,N,00142.67697,E,0.279,289.19,270521,,,A*6C
$GPRMC,225346.00,A,4113.17082,N,00142.67581,E,0.285,289.11,270521,,,A*64
$GPRMC,225401.00,A,4113.17126,N,00142.67461,E,0.056,,270521,,,A*71
$GPRMC,225416.00,A,4113.17217,N,00142.67266,E,0.402,244.82,270521,,,A*64
$GPRMC,225431.00,A,4113.17142,N,00142.67517,E,0.228,227.35,270521,,,A*64
$GPRMC,225446.00,A,4113.17038,N,00142.67505,E,0.208,221.86,270521,,,A*67
$GPRMC,225501.00,A,4113.16977,N,00142.67667,E,0.063,,270521,,,A*7F
$GPRMC,225516.00,A,4113.17082,N,00142.67619,E,0.098,,270521,,,A*76
$GPRMC,225531.00,A,4113.17125,N,00142.67605,E,0.235,236.31,270521,,,A*6C
$GPRMC,225546.00,A,4113.17155,N,00142.67489,E,0.501,220.02,270521,,,A*6A
$GPRMC,225601.00,A,4113.17173,N,00142.67559,E,0.098,,270521,,,A*7B
$GPRMC,225616.00,A,4113.17158,N,00142.67635,E,0.149,,270521,,,A*70
$GPRMC,225631.00,A,4113.17140,N,00142.67559,E,0.257,207.29,270521,,,A*69
$GPRMC,225646.00,A,4113.17124,N,00142.67459,E,0.556,210.96,270521,,,A*6E
$GPRMC,225701.00,A,4113.17021,N,00142.67629,E,0.287,211.92,270521,,,A*63
$GPRMC,225716.00,A,4113.17064,N,00142.67665,E,0.126,,270521,,,A*73
$GPRMC,225731.00,A,4113.17065,N,00142.67639,E,0.329,239.54,270521,,,A*64
$GPRMC,225746.00,A,4113.17214,N,00142.67608,E,0.068,,270521,,,A*73
$GPRMC,225801.00,A,4113.17248,N,00142.67487,E,0.042,,270521,,,A*7B
$GPRMC,225816.00,A,4113.17293,N,00142.67410,E,0.241,231.24,270521,,,A*6C
$GPRMC,225831.00,A,4113.17422,N,00142.67452,E,0.217,236.37,270521,,,A*65
$GPRMC,225846.00,A,4113.17229,N,00142.67548,E,0.207,237.86,270521,,,A*68
$GPRMC,225901.00,A,4113.17223,N,00142.67645,E,0.178,,270521,,,A*73
$GPRMC,225916.00,A,4113.17219,N,00142.67502,E,0.209,220.90,270521,,,A*6E
$GPRMC,225931.00,A,4113.17276,N,00142.67440,E,0.106,,270521,,,A*7E
$GPRMC,225946.00,A,4113.17337,N,00142.67397,E,0.250,198.22,270521,,,A*69
$GPRMC,230001.00,A,4113.17299,N,00142.67381,E,0.338,258.45,270521,,,A*64
$GPRMC,230016.00,A,4113.17301,N,00142.67279,E,0.483,285.69,270521,,,A*6D
$GPRMC,230031.00,A,4113.17229,N,00142.67405,E,0.214,289.02,270521,,,A*67
$GPRMC,230046.00,A,4113.17244,N,00142.67397,E,0.371,275.02,270521,,,A*61
$GPRMC,230101.00,A,4113.17272,N,00142.67384,E,0.354,292.29,270521,,,A*63
$GPRMC,230116.00,A,4113.17168,N,00142.67437,E,0.345,276.83,270521,,,A*68
$GPRMC,230131.00,A,4113.16935,N,00142.67515,E,0.294,247.72,270521,,,A*6C
$GPRMC,230146.00,A,4113.16768,N,00142.67734,E,0.229,242.19,270521,,,A*65
$GPRMC,230201.00,A,4113.16623,N,00142.67912,E,0.644,232.94,270521,,,A*6C
$GPRMC,230216.00,A,4113.16655,N,00142.67960,E,0.153,,270521,,,A*7F
$GPRMC,230231.00,A,4113.16567,N,00142.67884,E,0.161,,270521,,,A*72
$GPRMC,230246.00,A,4113.16915,N,00142.67629,E,0.600,255.82,270521,,,A*64
$GPRMC,230301.00,A,4113.16973,N,00142.67680,E,0.340,270.42,270521,,,A*6F
$GPRMC,230316.00,A,4113.17149,N,00142.67618,E,0.491,256.19,270521,,,A*69
$GPRMC,230331.00,A,4113.17234,N,00142.67524,E,0.257,235.72,270521,,,A*6D
$GPRMC,230346.00,A,4113.17110,N,00142.67492,E,0.519,262.63,270521,,,A*6B
$GPRMC,230401.00,A,4113.17070,N,00142.67529,E,0.520,243.78,270521,,,A*6A
$GPRMC,230416.00,A,4113.16931,N,00142.67645,E,0.191,,270521,,,A*72
$GPRMC,230431.00,A,4113.16690,N,00142.67845,E,0.307,234.93,270521,,,A*61
$GPRMC,230446.00,A,4113.17356,N,00142.67209,E,0.159,,270521,,,A*75
$GPRMC,230501.00,A,4113.17346,N,00142.67313,E,0.311,295.58,270521,,,A*6F
$GPRMC,230516.00,A,4113.17201,N,00142.67412,E,0.176,,270521,,,A*73
$GPRMC,230531.00,A,4113.17175,N,00142.67484,E,0.061,,270521,,,A*7E
$GPRMC,230546.00,A,4113.17204,N,00142.67371,E,0.204,339.18,270521,,,A*69
$GPRMC,230601.00,A,4113.17148,N,00142.67422,E,0.170,,270521,,,A*7D
$GPRMC,230616.00,A,4113.17072,N,00142.67357,E,0.245,328.08,270521,,,A*6C
$GPRMC,230631.00,A,4113.17077,N,00142.67409,E,0.286,309.03,270521,,,A*67
$GPRMC,230646.00,A,4113.17125,N,00142.67387,E,0.150,,270521,,,A*7F
$GPRMC,230701.00,A,4113.17111,N,00142.67356,E,0.147,,270521,,,A*70
$GPRMC,230716.00,A,4113.17141,N,00142.67263,E,0.865,269.23,270521,,,A*6F
$GPRMC,230731.00,A,4113.17190,N,00142.67184,E,0.187,,270521,,,A*7B
$GPRMC,230746.00,A,4113.17220,N,00142.67304,E,0.275,258.24,270521,,,A*60
$GPRMC,230801.00,A,4113.17101,N,00142.67353,E,0.105,,270521,,,A*7D
$GPRMC,230816.00,A,4113.17104,N,00142.67349,E,0.280,209.70,270521,,,A*69
$GPRMC,230831.00,A,4113.17182,N,00142.67347,E,0.727,234.83,270521,,,A*66
$GPRMC,230846.00,A,4113.17229,N,00142.67254,E,0.489,235.74,270521,,,A*69
$GPRMC,230901.00,A,4113.17199,N,00142.67291,E,0.229,248.59,270521,,,A*63
$GPRMC,230916.00,A,4113.17109,N,00142.67412,E,0.673,269.37,270521,,,A*61
$GPRMC,230931.00,A,4113.17074,N,00142.67493,E,0.232,280.82,270521,,,A*6E
$GPRMC,230946.00,A,4113.17076,N,00142.67600,E,0.404,295.85,270521,,,A*64
$GPRMC,231001.00,A,4113.17074,N,00142.67537,E,0.166,,270521,,,A*76
$GPRMC,231016.00,A,4113.17033,N,00142.67461,E,0.245,300.41,270521,,,A*6B
$GPRMC,231031.00,A,4113.17066,N,00142.67380,E,0.164,,270521,,,A*7E
$GPRMC,231046.00,A,4113.16611,N,00142.67889,E,0.213,249.29,270521,,,A*62
$GPRMC,231101.00,A,4113.16456,N,00142.68146,E,0.308,234.27,270521,,,A*6B
$GPRMC,231116.00,A,4113.16415,N,00142.68089,E,0.572,237.74,270521,,,A*66
$GPRMC,231131.00,A,4113.16464,N,00142.68205,E,0.245,251.89,270521,,,A*62
$GPRMC,231146.00,A,4113.16251,N,00142.68563,E,0.370,258.88,270521,,,A*6A
$GPRMC,231201.00,A,4113.16245,N,00142.68637,E,0.370,248.17,270521,,,A*6A
$GPRMC,231216.00,A,4113.16233,N,00142.68567,E,0.317,262.83,270521,,,A*6F
$GPRMC,231231.00,A,4113.16278,N,00142.68352,E,0.298,270.05,270521,,,A*6E
$GPRMC,231246.00,A,4113.16284,N,00142.68021,E,0.424,254.52,270521,,,A*6F
$GPRMC,231301.00,A,4113.16535,N,00142.67831,E,1.085,287.60,270521,,,A*67
$GPRMC,231316.00,A,4113.16931,N,00142.67495,E,0.442,302.44,270521,,,A*6F
$GPRMC,231331.00,A,4113.16486,N,00142.68018,E,0.347,289.30,270521,,,A*66
$GPRMC,231346.00,A,4113.16267,N,00142.68086,E,0.406,291.24,270521,,,A*66
$GPRMC,231401.00,A,4113.16598,N,00142.67646,E,0.654,280.39,270521,,,A*69
$GPRMC,231416.00,A,4113.16720,N,00142.67453,E,0.743,146.35,270521,,,A*6A
$GPRMC,231431.00,A,4113.16795,N,00142.67481,E,0.419,351.53,270521,,,A*66
$GPRMC,231446.00,A,4113.16951,N,00142.67426,E,0.192,,270521,,,A*74
$GPRMC,231501.00,A,4113.17142,N,00142.67393,E,0.649,329.83,270521,,,A*68
$GPRMC,231516.00,A,4113.17315,N,00142.67280,E,0.617,31.01,270521,,,A*56
$GPRMC,231531.00,A,4113.17354,N,00142.67370,E,0.215,54.32,270521,,,A*5D
$GPRMC,231546.00,A,4113.17312,N,00142.67228,E,0.199,49.12,270521,,,A*5A
$GPRMC,231601.00,A,4113.17081,N,00142.67594,E,0.785,42.25,270521,,,A*57
$GPRMC,231616.00,A,4113.17062,N,00142.67902,E,0.494,39.39,270521,,,A*5D
$GPRMC,231631.00,A,4113.17194,N,00142.67702,E,0.233,70.84,270521,,,A*5E
$GPRMC,231646.00,A,4113.17260,N,00142.67402,E,0.244,36.43,270521,,,A*5C
$GPRMC,231701.00,A,4113.17009,N,00142.67491,E,0.585,77.40,270521,,,A*55
$GPRMC,231716.00,A,4113.17019,N,00142.67580,E,0.199,55.87,270521,,,A*51
$GPRMC,231731.00,A,4113.17116,N,00142.67533,E,0.164,,270521,,,A*71
$GPRMC,231746.00,A,4113.17192,N,00142.67550,E,0.102,,270521,,,A*78
$GPRMC,231801.00,A,4113.17163,N,00142.67440,E,0.350,38.59,270521,,,A*56
$GPRMC,231816.00,A,4113.16994,N,00142.67539,E,0.278,59.44,270521,,,A*5E
$GPRMC,231831.00,A,4113.16997,N,00142.67555,E,0.236,48.63,270521,,,A*5D
$GPRMC,231846.00,A,4113.17090,N,00142.67532,E,0.172,,270521,,,A*77
$GPRMC,231901.00,A,4113.17218,N,00142.67067,E,0.663,44.58,270521,,,A*56
$GPRMC,231916.00,A,4113.17151,N,00142.66891,E,0.272,98.47,270521,,,A*55
$GPRMC,231931.00,A,4113.17188,N,00142.66919,E,0.316,87.18,270521,,,A*52
$GPRMC,231946.00,A,4113.17235,N,00142.66951,E,0.086,,270521,,,A*79
$GPRMC,232001.00,A,4113.17205,N,00142.66965,E,0.343,84.27,270521,,,A*59
$GPRMC,232016.00,A,4113.17211,N,00142.67060,E,0.117,,270521,,,A*73
$GPRMC,232031.00,A,4113.17509,N,00142.66681,E,0.348,58.62,270521,,,A*5F
$GPRMC,232046.00,A,4113.17449,N,00142.66831,E,0.161,,270521,,,A*71
$GPRMC,232101.00,A,4113.17129,N,00142.67359,E,0.086,,270521,,,A*7C
$GPRMC,232116.00,A,4113.17114,N,00142.67426,E,0.027,,270521,,,A*70
$GPRMC,232131.00,A,4113.17121,N,00142.67436,E,0.011,,270521,,,A*77
$GPRMC,232146.00,A,4113.17118,N,00142.67462,E,0.017,,270521,,,A*7A
$GPRMC,232201.00,A,4113.17108,N,00142.67473,E,0.010,,270521,,,A*7C
$GPRMC,232216.00,A,4113.17119,N,00142.67459,E,0.038,,270521,,,A*78
$GPRMC,232231.00,A,4113.17130,N,00142.67426,E,0.004,,270521,,,A*71
$GPRMC,232246.00,A,4113.17144,N,00142.67375,E,0.052,,270521,,,A*70
$GPRMC,232301.00,A,4113.17164,N,00142.67342,E,0.036,,270521,,,A*76
$GPRMC,232316.00,A,4113.17204,N,00142.67315,E,0.029,,270521,,,A*79
$GPRMC,232331.00,A,4113.17211,N,00142.67311,E,0.018,,270521,,,A*7E
$GPRMC,232346.00,A,4113.17145,N,00142.67392,E,0.024,,270521,,,A*78
$GPRMC,232401.00,A,4113.17153,N,00142.67363,E,0.004,,270521,,,A*77
$GPRMC,232416.00,A,4113.17246,N,00142.67242,E,0.050,,270521,,,A*75
$GPRMC,232431.00,A,4113.17261,N,00142.67250,E,0.026,,270521,,,A*77
$GPRMC,232446.00,A,4113.17342,N,00142.67313,E,0.088,,270521,,,A*75
$GPRMC,232501.00,A,4113.17294,N,00142.67299,E,0.030,,270521,,,A*7D
$GPRMC,232516.00,A,4113.17226,N,00142.67205,E,0.082,,270521,,,A*7E
$GPRMC,232531.00,A,4113.17144,N,00142.67275,E,0.032,,270521,,,A*70
$GPRMC,232546.00,A,4113.17160,N,00142.67305,E,0.116,,270521,,,A*77
$GPRMC,232601.00,A,4113.17172,N,00142.67292,E,0.027,,270521,,,A*78
$GPRMC,232616.00,A,4113.17089,N,00142.67333,E,0.038,,270521,,,A*7F
$GPRMC,232631.00,A,4113.16910,N,00142.67428,E,0.081,,270521,,,A*7D
$GPRMC,232646.00,A,4113.16914,N,00142.67374,E,0.027,,270521,,,A*7B
$GPRMC,232701.00,A,4113.17065,N,00142.67334,E,0.052,,270521,,,A*71
$GPRMC,232716.00,A,4113.17086,N,00142.67319,E,0.027,,270521,,,A*77
$GPRMC,232731.00,A,4113.16948,N,00142.67423,E,0.034,,270521,,,A*74
$GPRMC,232746.00,A,4113.16932,N,00142.67399,E,0.039,,270521,,,A*72
$GPRMC,232801.00,A,4113.17090,N,00142.67324,E,0.202,88.92,270521,,,A*57
$GPRMC,232816.00,A,4113.17103,N,00142.67217,E,0.130,,270521,,,A*7C
$GPRMC,232831.00,A,4113.16957,N,00142.67224,E,0.081,,270521,,,A*7A
$GPRMC,232846.00,A,4113.16888,N,00142.67184,E,0.033,,270521,,,A*79
$GPRMC,232901.00,A,4113.16946,N,00142.67172,E,0.016,,270521,,,A*76
$GPRMC,232916.00,A,4113.16934,N,00142.67248,E,0.018,,270521,,,A*71
$GPRMC,232931.00,A,4113.16895,N,00142.67265,E,0.083,,270521,,,A*73
$GPRMC,232946.00,A,4113.16902,N,00142.67167,E,0.013,,270521,,,A*74
$GPRMC,233001.00,A,4113.16956,N,00142.67075,E,0.054,,270521,,,A*7F
$GPRMC,233016.00,A,4113.16954,N,00142.67098,E,0.057,,270521,,,A*7B
$GPRMC,233031.00,A,4113.16951,N,00142.67192,E,0.016,,270521,,,A*75
$GPRMC,233046.00,A,4113.16998,N,00142.67215,E,0.034,,270521,,,A*7C
$GPRMC,233101.00,A,4113.16994,N,00142.67265,E,0.049,,270521,,,A*7F
$GPRMC,233116.00,A,4113.16904,N,00142.67319,E,0.036,,270521,,,A*72
$GPRMC,233131.00,A,4113.16895,N,00142.67279,E,0.042,,270521,,,A*7A
$GPRMC,233146.00,A,4113.16969,N,00142.67277,E,0.070,,270521,,,A*77
$GPRMC,233201.00,A,4113.16979,N,00142.67305,E,0.250,60.52,270521,,,A*5D
$GPRMC,233216.00,A,4113.17039,N,00142.67354,E,0.078,,270521,,,A*74
$GPRMC,233231.00,A,4113.17127,N,00142.67358,E,0.173,,270521,,,A*79
$GPRMC,233246.00,A,4113.17142,N,00142.67362,E,0.035,,270521,,,A*70
$GPRMC,233301.00,A,4113.17064,N,00142.67370,E,0.015,,270521,,,A*76
$GPRMC,233316.00,A,4113.17047,N,00142.67325,E,0.107,,270521,,,A*73
$GPRMC,233331.00,A,4113.17110,N,00142.67320,E,0.047,,270521,,,A*75
$GPRMC,233346.00,A,4113.17146,N,00142.67384,E,0.028,,270521,,,A*71
$GPRMC,233401.00,A,4113.17172,N,00142.67419,E,0.144,,270521,,,A*7A
$GPRMC,233416.00,A,4113.17187,N,00142.67424,E,0.053,,270521,,,A*7F
$GPRMC,233431.00,A,4113.17167,N,00142.67383,E,0.018,,270521,,,A*71
$GPRMC,233446.00,A,4113.17166,N,00142.67324,E,0.060,,270521,,,A*72
$GPRMC,233501.00,A,4113.17202,N,00142.67297,E,0.032,,270521,,,A*7F
$GPRMC,233516.00,A,4113.17234,N,00142.67364,E,0.102,,270521,,,A*73
$GPRMC,233531.00,A,4113.17225,N,00142.67435,E,0.015,,270521,,,A*72
$GPRMC,233546.00,A,4113.17252,N,00142.67465,E,0.024,,270521,,,A*75
$GPRMC,233601.00,A,4113.17225,N,00142.67439,E,0.039,,270521,,,A*70
$GPRMC,233616.00,A,4113.17160,N,00142.67380,E,0.036,,270521,,,A*7E
$GPRMC,233631.00,A,4113.17124,N,00142.67334,E,0.019,,270521,,,A*79
$GPRMC,233646.00,A,4113.17071,N,00142.67308,E,0.063,,270521,,,A*7A
$GPRMC,233701.00,A,4113.17088,N,00142.67265,E,0.058,,270521,,,A*7C
$GPRMC,233716.00,A,4113.17145,N,00142.67240,E,0.057,,270521,,,A*72
$GPRMC,233731.00,A,4113.17154,N,00142.67254,E,0.024,,270521,,,A*76
$GPRMC,233746.00,A,4113.17190,N,00142.67248,E,0.024,,270521,,,A*73
$GPRMC,233801.00,A,4113.17185,N,00142.67267,E,0.081,,270521,,,A*79
$GPRMC,233816.00,A,4113.17093,N,00142.67266,E,0.003,,270521,,,A*72
$GPRMC,233831.00,A,4113.17057,N,00142.67247,E,0.045,,270521,,,A*7E
$GPRMC,233846.00,A,4113.17042,N,00142.67234,E,0.043,,270521,,,A*78
$GPRMC,233901.00,A,4113.17023,N,00142.67252,E,0.055,,270521,,,A*7A
$GPRMC,233916.00,A,4113.17072,N,00142.67238,E,0.038,,270521,,,A*7F
$GPRMC,233931.00,A,4113.17161,N,00142.67212,E,0.047,,270521,,,A*79
$GPRMC,233946.00,A,4113.17161,N,00142.67246,E,0.018,,270521,,,A*72
$GPRMC,234001.00,A,4113.17145,N,00142.67254,E,0.170,,270521,,,A*75
$GPRMC,234016.00,A,4113.17136,N,00142.67203,E,0.023,,270521,,,A*72
$GPRMC,234031.00,A,4113.17178,N,00142.67216,E,0.110,,270521,,,A*78
$GPRMC,234046.00,A,4113.17173,N,00142.67273,E,0.013,,270521,,,A*72
$GPRMC,234101.00,A,4113.17115,N,00142.67302,E,0.049,,270521,,,A*78
$GPRMC,234116.00,A,4113.17111,N,00142.67302,E,0.040,,270521,,,A*73
$GPRMC,234131.00,A,4113.17206,N,00142.67307,E,0.109,,270521,,,A*7A
$GPRMC,234146.00,A,4113.17315,N,00142.67317,E,0.186,,270521,,,A*7F
$GPRMC,234201.00,A,4113.17342,N,00142.67307,E,0.131,,270521,,,A*70
$GPRMC,234216.00,A,4113.17290,N,00142.67292,E,0.006,,270521,,,A*70
$GPRMC,234231.00,A,4113.17212,N,00142.67244,E,0.114,,270521,,,A*76
$GPRMC,234246.00,A,4113.17210,N,00142.67282,E,0.073,,270521,,,A*7E
$GPRMC,234301.00,A,4113.17225,N,00142.67322,E,0.003,,270521,,,A*76
$GPRMC,234316.00,A,4113.17182,N,00142.67307,E,0.024,,270521,,,A*7C
$GPRMC,234331.00,A,4113.17166,N,00142.67257,E,0.042,,270521,,,A*77
$GPRMC,234346.00,A,4113.17231,N,00142.67239,E,0.023,,270521,,,A*79
$GPRMC,234401.00,A,4113.17254,N,00142.67223,E,0.021,,270521,,,A*77
$GPRMC,234416.00,A,4113.17256,N,00142.67259,E,0.023,,270521,,,A*7C
$GPRMC,234431.00,A,4113.17211,N,00142.67287,E,0.029,,270521,,,A*73
$GPRMC,234446.00,A,4113.17172,N,00142.67289,E,0.042,,270521,,,A*76
$GPRMC,234501.00,A,4113.17213,N,00142.67230,E,0.003,,270521,,,A*77
$GPRMC,234516.00,A,4113.17246,N,00142.67222,E,0.006,,270521,,,A*77
$GPRMC,234531.00,A,4113.17227,N,00142.67204,E,0.008,,270521,,,A*7F
$GPRMC,234546.00,A,4113.17227,N,00142.67206,E,0.023,,270521,,,A*74
$GPRMC,234601.00,A,4113.17208,N,00142.67264,E,0.023,,270521,,,A*7D
$GPRMC,234616.00,A,4113.17204,N,00142.67342,E,0.014,,270521,,,A*76
$GPRMC,234631.00,A,4113.17305,N,00142.67371,E,0.012,,270521,,,A*75
$GPRMC,234646.00,A,4113.17358,N,00142.67341,E,0.019,,270521,,,A*75
$GPRMC,234701.00,A,4113.17341,N,00142.67295,E,0.012,,270521,,,A*7C
$GPRMC,234716.00,A,4113.17275,N,00142.67310,E,0.008,,270521,,,A*7B
$GPRMC,234731.00,A,4113.17253,N,00142.67331,E,0.024,,270521,,,A*77
$GPRMC,234746.00,A,4113.17276,N,00142.67337,E,0.025,,270521,,,A*77
$GPRMC,234801.00,A,4113.17262,N,00142.67336,E,0.016,,270521,,,A*7F
$GPRMC,234816.00,A,4113.17213,N,00142.67290,E,0.004,,270521,,,A*71
$GPRMC,234831.00,A,4113.17182,N,00142.67302,E,0.003,,270521,,,A*72
$GPRMC,234846.00,A,4113.17151,N,00142.67281,E,0.011,,270521,,,A*75
$GPRMC,234901.00,A,4113.17187,N,00142.67199,E,0.005,,270521,,,A*73
$GPRMC,234916.00,A,4113.17189,N,00142.67180,E,0.010,,270521,,,A*77
$GPRMC,234931.00,A,4113.17146,N,00142.67185,E,0.014,,270521,,,A*70
$GPRMC,234946.00,A,4113.17133,N,00142.67186,E,0.003,,270521,,,A*77
$GPRMC,235001.00,A,4113.17209,N,00142.67152,E,0.007,,270521,,,A*7B
$GPRMC,235016.00,A,4113.17212,N,00142.67160,E,0.004,,270521,,,A*75
$GPRMC,235031.00,A,4113.17170,N,00142.67146,E,0.011,,270521,,,A*77
$GPRMC,235046.00,A,4113.17168,N,00142.67112,E,0.010,,270521,,,A*7E
$GPRMC,235101.00,A,4113.17194,N,00142.67089,E,0.017,,270521,,,A*7B
$GPRMC,235116.00,A,4113.17142,N,00142.67167,E,0.006,,270521,,,A*77
$GPRMC,235131.00,A,4113.17125,N,00142.67126,E,0.003,,270521,,,A*73
$GPRMC,235146.00,A,4113.17204,N,00142.67061,E,0.019,,270521,,,A*7A
$GPRMC,235201.00,A,4113.17231,N,00142.67113,E,0.016,,270521,,,A*77
$GPRMC,235216.00,A,4113.17258,N,00142.67167,E,0.022,,270521,,,A*7A
$GPRMC,235231.00,A,4113.17218,N,00142.67198,E,0.011,,270521,,,A*7B
$GPRMC,235246.00,A,4113.17175,N,00142.67158,E,0.025,,270521,,,A*78
$GPRMC,235301.00,A,4113.17153,N,00142.67152,E,0.039,,270521,,,A*79
$GPRMC,235316.00,A,4113.17178,N,00142.67146,E,0.019,,270521,,,A*71
$GPRMC,235331.00,A,4113.17256,N,00142.67130,E,0.023,,270521,,,A*73
$GPRMC,235346.00,A,4113.17254,N,00142.67169,E,0.034,,270521,,,A*7B
$GPRMC,235401.00,A,4113.17223,N,00142.67242,E,0.027,,270521,,,A*77
$GPRMC,235416.00,A,4113.17224,N,00142.67233,E,0.022,,270521,,,A*75
$GPRMC,235431.00,A,4113.17226,N,00142.67182,E,0.009,,270521,,,A*72
$GPRMC,235446.00,A,4113.17221,N,00142.67172,E,0.010,,270521,,,A*72
$GPRMC,235501.00,A,4113.17212,N,00142.67108,E,0.035,,270521,,,A*7A
$GPRMC,235516.00,A,4113.17192,N,00142.67115,E,0.013,,270521,,,A*7F
$GPRMC,235531.00,A,4113.17145,N,00142.67080,E,0.011,,270521,,,A*7F
$GPRMC,235546.00,A,4113.17142,N,00142.67098,E,0.026,,270521,,,A*75
$GPRMC,235601.00,A,4113.17147,N,00142.67125,E,0.012,,270521,,,A*70
$GPRMC,235616.00,A,4113.17136,N,00142.67046,E,0.012,,270521,,,A*74
$GPRMC,235631.00,A,4113.17119,N,00142.67052,E,0.050,,270521,,,A*7F
$GPRMC,235646.00,A,4113.17104,N,00142.67101,E,0.009,,270521,,,A*78
$GPRMC,235701.00,A,4113.17121,N,00142.67123,E,0.015,,270521,,,A*70
$GPRMC,235716.00,A,4113.17111,N,00142.67088,E,0.002,,270521,,,A*73
$GPRMC,235731.00,A,4113.17128,N,00142.67081,E,0.102,,270521,,,A*74
$GPRMC,235746.00,A,4113.17186,N,00142.67098,E,0.015,,270521,,,A*7F
$GPRMC,235801.00,A,4113.17236,N,00142.67209,E,0.049,,270521,,,A*78
$GPRMC,235816.00,A,4113.17199,N,00142.67248,E,0.051,,270521,,,A*74
$GPRMC,235831.00,A,4113.17147,N,00142.67195,E,0.045,,270521,,,A*74
$GPRMC,235846.00,A,4113.17216,N,00142.67193,E,0.040,,270521,,,A*70
$GPRMC,235901.00,A,4113.17251,N,00142.67233,E,0.013,,270521,,,A*7E
$GPRMC,235916.00,A,4113.17190,N,00142.67211,E,0.018,,270521,,,A*7D
$GPRMC,235931.00,A,4113.17169,N,00142.67207,E,0.021,,270521,,,A*73
$GPRMC,235946.00,A,4113.17263,N,00142.67179,E,0.020,,270521,,,A*71
$GPRMC,000001.00,A,4113.17332,N,00142.67235,E,0.522,35.69,280521,,,A*5E
$GPRMC,000016.00,A,4113.17281,N,00142.67286,E,0.019,,280521,,,A*73
$GPRMC,000031.00,A,4113.17242,N,00142.67288,E,0.031,,280521,,,A*7D
$GPRMC,000046.00,A,4113.17268,N,00142.67302,E,0.014,,280521,,,A*71
$GPRMC,000101.00,A,4113.17189,N,00142.67317,E,0.046,,280521,,,A*7C
$GPRMC,000116.00,A,4113.17182,N,00142.67303,E,0.015,,280521,,,A*72
$GPRMC,000131.00,A,4113.17269,N,00142.67218,E,0.007,,280521,,,A*79
$GPRMC,000146.00,A,4113.17200,N,00142.67227,E,0.019,,280521,,,A*75
$GPRMC,000201.00,A,4113.17159,N,00142.67256,E,0.073,,280521,,,A*70
$GPRMC,000216.00,A,4113.17161,N,00142.67238,E,0.010,,280521,,,A*70
$GPRMC,000231.00,A,4113.17158,N,00142.67233,E,0.042,,280521,,,A*73
$GPRMC,000246.00,A,4113.17160,N,00142.67255,E,0.016,,280521,,,A*79
$GPRMC,000301.00,A,4113.17110,N,00142.67317,E,0.019,,280521,,,A*74
$GPRMC,000316.00,A,4113.17169,N,00142.67247,E,0.088,,280521,,,A*70
$GPRMC,000331.00,A,4113.17253,N,00142.67221,E,0.099,,280521,,,A*7F
$GPRMC,000346.00,A,4113.17270,N,00142.67187,E,0.385,37.26,280521,,,A*51
$GPRMC,000401.00,A,4113.17263,N,00142.67186,E,0.069,,280521,,,A*79
$GPRMC,000416.00,A,4113.17204,N,00142.67155,E,0.067,,280521,,,A*7E
$GPRMC,000431.00,A,4113.17230,N,00142.67115,E,0.093,,280521,,,A*73
$GPRMC,000446.00,A,4113.17269,N,00142.67083,E,0.025,,280521,,,A*7C
$GPRMC,000501.00,A,4113.17306,N,00142.67074,E,0.017,,280521,,,A*7F
$GPRMC,000516.00,A,4113.17289,N,00142.67086,E,0.051,,280521,,,A*70
$GPRMC,000531.00,A,4113.17271,N,00142.67123,E,0.007,,280521,,,A*7F
$GPRMC,000546.00,A,4113.17270,N,00142.67109,E,0.003,,280521,,,A*72
$GPRMC,000601.00,A,4113.17273,N,00142.67042,E,0.021,,280521,,,A*7F
$GPRMC,000616.00,A,4113.17270,N,00142.67115,E,0.013,,280521,,,A*78
$GPRMC,000631.00,A,4113.17199,N,00142.67194,E,0.026,,280521,,,A*76
$GPRMC,000646.00,A,4113.17146,N,00142.67203,E,0.010,,280521,,,A*7C
$GPRMC,000701.00,A,4113.17191,N,00142.67175,E,0.013,,280521,,,A*75
$GPRMC,000716.00,A,4113.17266,N,00142.67160,E,0.010,,280521,,,A*7F
$GPRMC,000731.00,A,4113.17246,N,00142.67152,E,0.021,,280521,,,A*7B
$GPRMC,000746.00,A,4113.17184,N,00142.67216,E,0.016,,280521,,,A*71
$GPRMC,000801.00,A,4113.17202,N,00142.67244,E,0.005,,280521,,,A*75
$GPRMC,000816.00,A,4113.17265,N,00142.67232,E,0.026,,280521,,,A*72
$GPRMC,000831.00,A,4113.17231,N,00142.67215,E,0.004,,280521,,,A*73
$GPRMC,000846.00,A,4113.17163,N,00142.67284,E,0.006,,280521,,,A*7D
$GPRMC,000901.00,A,4113.17160,N,00142.67310,E,0.004,,280521,,,A*72
$GPRMC,000916.00,A,4113.17177,N,00142.67291,E,0.021,,280521,,,A*7D
$GPRMC,000931.00,A,4113.17177,N,00142.67306,E,0.028,,280521,,,A*7E
$GPRMC,000946.00,A,4113.17174,N,00142.67309,E,0.049,,280521,,,A*75
$GPRMC,001001.00,A,4113.17147,N,00142.67311,E,0.010,,280521,,,A*7B
$GPRMC,001016.00,A,4113.17168,N,00142.67320,E,0.013,,280521,,,A*71
$GPRMC,001031.00,A,4113.17194,N,00142.67270,E,0.011,,280521,,,A*71
$GPRMC,001046.00,A,4113.17203,N,00142.67249,E,0.024,,280521,,,A*70
$GPRMC,001101.00,A,4113.17198,N,00142.67260,E,0.009,,280521,,,A*77
$GPRMC,001116.00,A,4113.17214,N,00142.67285,E,0.011,,280521,,,A*74
$GPRMC,001131.00,A,4113.17214,N,00142.67299,E,0.041,,280521,,,A*79
$GPRMC,001146.00,A,4113.17215,N,00142.67326,E,0.028,,280521,,,A*72
$GPRMC,001201.00,A,4113.17241,N,00142.67329,E,0.004,,280521,,,A*72
$GPRMC,001216.00,A,4113.17274,N,00142.67297,E,0.009,,280521,,,A*7B
$GPRMC,001231.00,A,4113.17289,N,00142.67283,E,0.008,,280521,,,A*78
$GPRMC,001246.00,A,4113.17261,N,00142.67346,E,0.025,,280521,,,A*79
$GPRMC,001301.00,A,4113.17317,N,00142.67329,E,0.066,,280521,,,A*75
$GPRMC,001316.00,A,4113.17338,N,00142.67291,E,0.010,,280521,,,A*7D
$GPRMC,001331.00,A,4113.17354,N,00142.67278,E,0.028,,280521,,,A*7E
$GPRMC,001346.00,A,4113.17363,N,00142.67253,E,0.091,,280521,,,A*71
$GPRMC,001401.00,A,4113.17405,N,00142.67207,E,0.055,,280521,,,A*7B
$GPRMC,001416.00,A,4113.17456,N,00142.67217,E,0.024,,280521,,,A*7C
$GPRMC,001431.00,A,4113.17472,N,00142.67222,E,0.088,,280521,,,A*7F
$GPRMC,001446.00,A,4113.17456,N,00142.67210,E,0.047,,280521,,,A*7B
$GPRMC,001501.00,A,4113.17434,N,00142.67223,E,0.094,,280521,,,A*73
$GPRMC,001516.00,A,4113.17473,N,00142.67189,E,0.011,,280521,,,A*78
$GPRMC,001531.00,A,4113.17472,N,00142.67209,E,0.035,,280521,,,A*71
$GPRMC,001546.00,A,4113.17438,N,00142.67204,E,0.031,,280521,,,A*76
$GPRMC,001601.00,A,4113.17434,N,00142.67233,E,0.019,,280521,,,A*74
$GPRMC,001616.00,A,4113.17391,N,00142.67307,E,0.024,,280521,,,A*72
$GPRMC,001631.00,A,4113.17377,N,00142.67307,E,0.022,,280521,,,A*79
$GPRMC,001646.00,A,4113.17365,N,00142.67352,E,0.015,,280521,,,A*7E
$GPRMC,001701.00,A,4113.17327,N,00142.67364,E,0.018,,280521,,,A*72
$GPRMC,001716.00,A,4113.17283,N,00142.67385,E,0.015,,280521,,,A*79
$GPRMC,001731.00,A,4113.17320,N,00142.67372,E,0.056,,280521,,,A*7B
$GPRMC,001746.00,A,4113.17337,N,00142.67401,E,0.009,,280521,,,A*74
$GPRMC,001801.00,A,4113.17281,N,00142.67407,E,0.044,,280521,,,A*7B
$GPRMC,001816.00,A,4113.17273,N,00142.67415,E,0.016,,280521,,,A*74
$GPRMC,001831.00,A,4113.17283,N,00142.67441,E,0.003,,280521,,,A*7B
$GPRMC,001846.00,A,4113.17323,N,00142.67367,E,0.025,,280521,,,A*77
$GPRMC,001901.00,A,4113.17272,N,00142.67417,E,0.013,,280521,,,A*75
$GPRMC,001916.00,A,4113.17212,N,00142.67462,E,0.006,,280521,,,A*73
$GPRMC,001931.00,A,4113.17234,N,00142.67392,E,0.021,,280521,,,A*7F
$GPRMC,001946.00,A,4113.17299,N,00142.67400,E,0.023,,280521,,,A*76
$GPRMC,002001.00,A,4113.17273,N,00142.67427,E,0.009,,280521,,,A*76
$GPRMC,002016.00,A,4113.17266,N,00142.67382,E,0.010,,280521,,,A*74
$GPRMC,002031.00,A,4113.17267,N,00142.67387,E,0.005,,280521,,,A*71
$GPRMC,002046.00,A,4113.17293,N,00142.67412,E,0.020,,280521,,,A*76
$GPRMC,002101.00,A,4113.17311,N,00142.67395,E,0.013,,280521,,,A*77
$GPRMC,002116.00,A,4113.17304,N,00142.67393,E,0.016,,280521,,,A*76
$GPRMC,002131.00,A,4113.17255,N,00142.67436,E,0.022,,280521,,,A*79
$GPRMC,002146.00,A,4113.17211,N,00142.67460,E,0.004,,280521,,,A*7E
$GPRMC,002201.00,A,4113.17226,N,00142.67427,E,0.017,,280521,,,A*7B
$GPRMC,002216.00,A,4113.17210,N,00142.67392,E,0.010,,280521,,,A*76
$GPRMC,002231.00,A,4113.17200,N,00142.67419,E,0.008,,280521,,,A*7F
$GPRMC,002246.00,A,4113.17182,N,00142.67401,E,0.013,,280521,,,A*75
$GPRMC,002301.00,A,4113.17223,N,00142.67333,E,0.033,,280521,,,A*7B
$GPRMC,002316.00,A,4113.17267,N,00142.67346,E,0.009,,280521,,,A*76
$GPRMC,002331.00,A,4113.17288,N,00142.67368,E,0.106,,280521,,,A*70
$GPRMC,002346.00,A,4113.17276,N,00142.67432,E,0.031,,280521,,,A*7C
$GPRMC,002401.00,A,4113.17263,N,00142.67460,E,0.035,,280521,,,A*7F
$GPRMC,002416.00,A,4113.17294,N,00142.67446,E,0.041,,280521,,,A*76
$GPRMC,002431.00,A,4113.17239,N,00142.67475,E,0.012,,280521,,,A*72
$GPRMC,002446.00,A,4113.17192,N,00142.67503,E,0.052,,280521,,,A*74
$GPRMC,002501.00,A,4113.17196,N,00142.67490,E,0.059,,280521,,,A*72
$GPRMC,002516.00,A,4113.17230,N,00142.67489,E,0.034,,280521,,,A*78
$GPRMC,002531.00,A,4113.17212,N,00142.67405,E,0.069,,280521,,,A*71
$GPRMC,002546.00,A,4113.17208,N,00142.67365,E,0.022,,280521,,,A*74
$GPRMC,002601.00,A,4113.17212,N,00142.67382,E,0.050,,280521,,,A*73
$GPRMC,002616.00,A,4113.17251,N,00142.67319,E,0.122,,280521,,,A*74
$GPRMC,002631.00,A,4113.17276,N,00142.67236,E,0.064,,280521,,,A*7B
$GPRMC,002646.00,A,4113.17232,N,00142.67196,E,0.030,,280521,,,A*73
$GPRMC,002701.00,A,4113.17128,N,00142.67239,E,0.004,,280521,,,A*78
$GPRMC,002716.00,A,4113.17104,N,00142.67254,E,0.019,,280521,,,A*77
$GPRMC,002731.00,A,4113.17116,N,00142.67233,E,0.021,,280521,,,A*7B
$GPRMC,002746.00,A,4113.17184,N,00142.67214,E,0.005,,280521,,,A*73
$GPRMC,002801.00,A,4113.17238,N,00142.67234,E,0.071,,280521,,,A*7A
$GPRMC,002816.00,A,4113.17273,N,00142.67228,E,0.007,,280521,,,A*7F
$GPRMC,002831.00,A,4113.17274,N,00142.67216,E,0.008,,280521,,,A*7F
$GPRMC,002846.00,A,4113.17273,N,00142.67218,E,0.033,,280521,,,A*7E
$GPRMC,002901.00,A,4113.17271,N,00142.67198,E,0.027,,280521,,,A*70
$GPRMC,002916.00,A,4113.17286,N,00142.67242,E,0.017,,280521,,,A*79
$GPRMC,002931.00,A,4113.17367,N,00142.67258,E,0.030,,280521,,,A*7C
$GPRMC,002946.00,A,4113.17411,N,00142.67215,E,0.011,,280521,,,A*70
$GPRMC,003001.00,A,4113.17410,N,00142.67205,E,0.051,,280521,,,A*7F
$GPRMC,003016.00,A,4113.17394,N,00142.67218,E,0.018,,280521,,,A*73
$GPRMC,003031.00,A,4113.17412,N,00142.67188,E,0.042,,280521,,,A*7A
$GPRMC,003046.00,A,4113.17423,N,00142.67161,E,0.026,,280521,,,A*7D
$GPRMC,003101.00,A,4113.17402,N,00142.67145,E,0.092,,280521,,,A*75
$GPRMC,003116.00,A,4113.17411,N,00142.67221,E,0.024,,280521,,,A*7D
$GPRMC,003131.00,A,4113.17353,N,00142.67295,E,0.065,,280521,,,A*73
$GPRMC,003146.00,A,4113.17451,N,00142.67295,E,0.075,,280521,,,A*77
$GPRMC,003201.00,A,4113.17498,N,00142.67232,E,0.094,,280521,,,A*70
$GPRMC,003216.00,A,4113.17513,N,00142.67241,E,0.031,,280521,,,A*7F
$GPRMC,003231.00,A,4113.17490,N,00142.67321,E,0.016,,280521,,,A*72
$GPRMC,003246.00,A,4113.17437,N,00142.67347,E,0.075,,280521,,,A*7A
$GPRMC,003301.00,A,4113.17395,N,00142.67349,E,0.237,49.21,280521,,,A*5D
$GPRMC,003316.00,A,4113.17263,N,00142.67313,E,0.466,66.21,280521,,,A*53
$GPRMC,003331.00,A,4113.17174,N,00142.67385,E,0.154,,280521,,,A*75
$GPRMC,003346.00,A,4113.17307,N,00142.67439,E,0.473,34.11,280521,,,A*5A
$GPRMC,003401.00,A,4113.17382,N,00142.67428,E,0.066,,280521,,,A*7A
$GPRMC,003416.00,A,4113.17322,N,00142.67434,E,0.245,112.52,280521,,,A*63
$GPRMC,003431.00,A,4113.17366,N,00142.67480,E,0.383,78.66,280521,,,A*58
$GPRMC,003446.00,A,4113.17393,N,00142.67511,E,0.097,,280521,,,A*7C
$GPRMC,003501.00,A,4113.17305,N,00142.67523,E,0.055,,280521,,,A*7E
$GPRMC,003516.00,A,4113.17223,N,00142.67500,E,0.041,,280521,,,A*79
$GPRMC,003531.00,A,4113.17158,N,00142.67456,E,0.022,,280521,,,A*74
$GPRMC,003546.00,A,4113.17110,N,00142.67374,E,0.078,,280521,,,A*70
$GPRMC,003601.00,A,4113.17141,N,00142.67324,E,0.090,,280521,,,A*77
$GPRMC,003616.00,A,4113.17252,N,00142.67412,E,0.042,,280521,,,A*7D
$GPRMC,003631.00,A,4113.17408,N,00142.67553,E,0.011,,280521,,,A*73
$GPRMC,003646.00,A,4113.17384,N,00142.67494,E,0.025,,280521,,,A*7D
$GPRMC,003701.00,A,4113.17351,N,00142.67356,E,0.161,,280521,,,A*7F
$GPRMC,003716.00,A,4113.17362,N,00142.67375,E,0.024,,280521,,,A*78
$GPRMC,003731.00,A,4113.17343,N,00142.67491,E,0.045,,280521,,,A*74
$GPRMC,003746.00,A,4113.17327,N,00142.67586,E,0.047,,280521,,,A*73
$GPRMC,003801.00,A,4113.17355,N,00142.67656,E,0.202,72.38,280521,,,A*57
$GPRMC,003816.00,A,4113.17412,N,00142.67701,E,0.040,,280521,,,A*72
$GPRMC,003831.00,A,4113.17391,N,00142.67676,E,0.074,,280521,,,A*7D
$GPRMC,003846.00,A,4113.17311,N,00142.67618,E,0.025,,280521,,,A*79
$GPRMC,003901.00,A,4113.17227,N,00142.67486,E,0.006,,280521,,,A*7B
$GPRMC,003916.00,A,4113.17229,N,00142.67430,E,0.027,,280521,,,A*7D
$GPRMC,003931.00,A,4113.17191,N,00142.67454,E,0.027,,280521,,,A*7A
$GPRMC,003946.00,A,4113.17174,N,00142.67497,E,0.009,,280521,,,A*72
$GPRMC,004001.00,A,4113.17174,N,00142.67488,E,0.016,,280521,,,A*7F
$GPRMC,004016.00,A,4113.17206,N,00142.67452,E,0.013,,280521,,,A*7D
$GPRMC,004031.00,A,4113.17181,N,00142.67394,E,0.021,,280521,,,A*78
$GPRMC,004046.00,A,4113.17150,N,00142.67367,E,0.012,,280521,,,A*78
$GPRMC,004101.00,A,4113.17130,N,00142.67327,E,0.031,,280521,,,A*79
$GPRMC,004116.00,A,4113.17128,N,00142.67335,E,0.023,,280521,,,A*76
$GPRMC,004131.00,A,4113.17084,N,00142.67348,E,0.020,,280521,,,A*7D
$GPRMC,004146.00,A,4113.17020,N,00142.67330,E,0.021,,280521,,,A*7D
$GPRMC,004201.00,A,4113.17034,N,00142.67327,E,0.042,,280521,,,A*7B
$GPRMC,004216.00,A,4113.17085,N,00142.67329,E,0.066,,280521,,,A*7F
$GPRMC,004231.00,A,4113.17171,N,00142.67313,E,0.087,,280521,,,A*76
$GPRMC,004246.00,A,4113.17219,N,00142.67355,E,0.094,,280521,,,A*7B
$GPRMC,004301.00,A,4113.17229,N,00142.67349,E,0.004,,280521,,,A*7E
$GPRMC,004316.00,A,4113.17192,N,00142.67370,E,0.013,,280521,,,A*77
$GPRMC,004331.00,A,4113.17223,N,00142.67379,E,0.078,,280521,,,A*7F
$GPRMC,004346.00,A,4113.17227,N,00142.67349,E,0.048,,280521,,,A*7B
$GPRMC,004401.00,A,4113.17208,N,00142.67386,E,0.073,,280521,,,A*79
$GPRMC,004416.00,A,4113.17195,N,00142.67432,E,0.021,,280521,,,A*77
$GPRMC,004431.00,A,4113.17227,N,00142.67477,E,0.222,110.70,280521,,,A*61
$GPRMC,004446.00,A,4113.17266,N,00142.67530,E,0.020,,280521,,,A*7F
$GPRMC,004501.00,A,4113.17299,N,00142.67527,E,0.089,,280521,,,A*78
$GPRMC,004516.00,A,4113.17305,N,00142.67509,E,0.046,,280521,,,A*75
$GPRMC,004531.00,A,4113.17278,N,00142.67551,E,0.023,,280521,,,A*75
$GPRMC,004546.00,A,4113.17248,N,00142.67506,E,0.027,,280521,,,A*70
$GPRMC,004601.00,A,4113.17224,N,00142.67489,E,0.029,,280521,,,A*72
$GPRMC,004616.00,A,4113.17184,N,00142.67469,E,0.009,,280521,,,A*71
$GPRMC,004631.00,A,4113.17193,N,00142.67502,E,0.090,,280521,,,A*7E
$GPRMC,004646.00,A,4113.17246,N,00142.67472,E,0.036,,280521,,,A*7F
$GPRMC,004701.00,A,4113.17294,N,00142.67418,E,0.041,,280521,,,A*7E
$GPRMC,004716.00,A,4113.17310,N,00142.67432,E,0.028,,280521,,,A*72
$GPRMC,004731.00,A,4113.17312,N,00142.67406,E,0.041,,280521,,,A*7D
$GPRMC,004746.00,A,4113.17314,N,00142.67461,E,0.021,,280521,,,A*7C
$GPRMC,004801.00,A,4113.17318,N,00142.67443,E,0.065,,280521,,,A*7C
$GPRMC,004816.00,A,4113.17277,N,00142.67479,E,0.153,,280521,,,A*7F
$GPRMC,004831.00,A,4113.17226,N,00142.67410,E,0.023,,280521,,,A*77
$GPRMC,004846.00,A,4113.17189,N,00142.67398,E,0.015,,280521,,,A*73
$GPRMC,004901.00,A,4113.17195,N,00142.67354,E,0.011,,280521,,,A*78
$GPRMC,004916.00,A,4113.17229,N,00142.67235,E,0.008,,280521,,,A*74
$GPRMC,004931.00,A,4113.17248,N,00142.67136,E,0.033,,280521,,,A*7E
$GPRMC,004946.00,A,4113.17293,N,00142.67126,E,0.100,,280521,,,A*78
$GPRMC,005001.00,A,4113.17373,N,00142.67122,E,0.026,,280521,,,A*7D
$GPRMC,005016.00,A,4113.17401,N,00142.67102,E,0.042,,280521,,,A*79
