$GPRMC,,V,,,,,,,,,,N*53
$GPRMC,,V,,,,,,,,,,N*53
$GPRMC,,V,,,,,,,,,,N*53
$GPRMC,,V,,,,,,,,,,N*53
$GPRMC,,V,,,,,,,,,,N*53
$GPRMC,,V,,,,,,,,,,N*53
$GPRMC,,V,,,,,,,,,,N*53
$GPRMC,,V,,,,,,,,,,N*53
$GPRMC,,V,,,,,,,,,,N*53
$GPRMC,,V,,,,,,,,,,N*53
$GPRMC,,V,,,,,,,,,,N*53
$GPRMC,,V,,,,,,,,,,N*53
$GPRMC,,V,,,,,,,,,,N*53
$GPRMC,,V,,,,,,,,,,N*53
$GPRMC,,V,,,,,,,,,,N*53
$GPRMC,,V,,,,,,,,,,N*53
$GPRMC,,V,,,,,,,,,,N*53
$GPRMC,,V,,,,,,,,,,N*53
$GPRMC,,V,,,,,,,,,,N*53
$GPRMC,,V,,,,,,,,,,N*53
$GPRMC,,V,,,,,,,,,,N*53
$GPRMC,,V,,,,,,,,,,N*53
$GPRMC,,V,,,,,,,,,,N*53
$GPRMC,,V,,,,,,,,,,N*53
$GPRMC,,V,,,,,,,,,,N*53
$GPRMC,,V,,,,,,,,,,N*53
$GPRMC,,V,,,,,,,,,,N*53
$GPRMC,,V,,,,,,,,,,N*53
$GPRMC,,V,,,,,,,,,,N*53
$GPRMC,,V,,,,,,,,,,N*53
$GPRMC,,V,,,,,,,,,,N*53
$GPRMC,,V,,,,,,,,,,N*53
$GPRMC,,V,,,,,,,,,,N*53
$GPRMC,,V,,,,,,,,,,N*53
$GPRMC,,V,,,,,,,,,,N*53
$GPRMC,,V,,,,,,,,,,N*53
$GPRMC,,V,,,,,,,,,,N*53
$GPRMC,,V,,,,,,,,,,N*53
$GPRMC,,V,,,,,,,,,,N*53
$GPRMC,,V,,,,,,,,,,N*53
$GPRMC,,V,,,,,,,,,,N*53
$GPRMC,,V,,,,,,,,,,N*53
$GPRMC,,V,,,,,,,,,,N*53
$GPRMC,,V,,,,,,,,,,N*53
$GPRMC,,V,,,,,,,,,,N*53
$GPRMC,,V,,,,,,,,,,N*53
$GPRMC,,V,,,,,,,,,,N*53
$GPRMC,,V,,,,,,,,,,N*53
$GPRMC,,V,,,,,,,,,,N*53
$GPRMC,,V,,,,,,,,,,N*53
$GPRMC,,V,,,,,,,,,,N*53
$GPRMC,,V,,,,,,,,,,N*53
$GPRMC,,V,,,,,,,,,,N*53
$GPRMC,,V,,,,,,,,,,N*53
$GPRMC,,V,,,,,,,,,,N*53
$GPRMC,,V,,,,,,,,,,N*53
$GPRMC,,V,,,,,,,,,,N*53
$GPRMC,,V,,,,,,,,,,N*53
$GPRMC,,V,,,,,,,,,,N*53
$GPRMC,,V,,,,,,,,,,N*53
$GPRMC,,V,,,,,,,,,,N*53
$GPRMC,,V,,,,,,,,,,N*53
$GPRMC,,V,,,,,,,,,,N*53
$GPRMC,,V,,,,,,,,,,N*53
$GPRMC,,V,,,,,,,,,,N*53
$GPRMC,,V,,,,,,,,,,N*53
$GPRMC,,V,,,,,,,,,,N*53
$GPRMC,,V,,,,,,,,,,N*53
$GPRMC,,V,,,,,,,,,,N*53
$GPRMC,,V,,,,,,,,,,N*53
$GPRMC,,V,,,,,,,,,,N*53
$GPRMC,,V,,,,,,,,,,N*53
$GPRMC,,V,,,,,,,,,,N*53
$GPRMC,,V,,,,,,,,,,N*53
$GPRMC,,V,,,,,,,,,,N*53
$GPRMC,,V,,,,,,,,,,N*53
$GPRMC,,V,,,,,,,,,,N*53
$GPRMC,,V,,,,,,,,,,N*53
$GPRMC,,V,,,,,,,,,,N*53
$GPRMC,,V,,,,,,,,,,N*53
$GPRMC,,V,,,,,,,,,,N*53
$GPRMC,,V,,,,,,,,,,N*53
$GPRMC,,V,,,,,,,,,,N*53
$GPRMC,,V,,,,,,,,,,N*53
$GPRMC,,V,,,,,,,,,,N*53
$GPRMC,,V,,,,,,,,,,N*53
$GPRMC,,V,,,,,,,,,,N*53
$GPRMC,,V,,,,,,,,,,N*53
$GPRMC,,V,,,,,,,,,,N*53
$GPRMC,,V,,,,,,,,,,N*53
$GPRMC,,V,,,,,,,,,,N*53
$GPRMC,,V,,,,,,,,,,N*53
$GPRMC,,V,,,,,,,,,,N*53
$GPRMC,,V,,,,,,,,,,N*53
$GPRMC,,V,,,,,,,,,,N*53
$GPRMC,,V,,,,,,,,,,N*53
$GPRMC,,V,,,,,,,,,,N*53
$GPRMC,,V,,,,,,,,,,N*53
$GPRMC,,V,,,,,,,,,,N*53
$GPRMC,,V,,,,,,,,,,N*53
$GPRMC,,V,,,,,,,,,,N*53
$GPRMC,,V,,,,,,,,,,N*53
$GPRMC,,V,,,,,,,,,,N*53
$GPRMC,,V,,,,,,,,,,N*53
$GPRMC,,V,,,,,,,,,,N*53
$GPRMC,,V,,,,,,,,,,N*53
$GPRMC,,V,,,,,,,,,,N*53
$GPRMC,,V,,,,,,,,,,N*53
$GPRMC,,V,,,,,,,,,,N*53
$GPRMC,,V,,,,,,,,,,N*53
$GPRMC,,V,,,,,,,,,,N*53
$GPRMC,,V,,,,,,,,,,N*53
$GPRMC,,V,,,,,,,,,,N*53
$GPRMC,,V,,,,,,,,,,N*53
$GPRMC,,V,,,,,,,,,,N*53
$GPRMC,,V,,,,,,,,,,N*53
$GPRMC,,V,,,,,,,,,,N*53
$GPRMC,,V,,,,,,,,,,N*53
$GPRMC,,V,,,,,,,,,,N*53
$GPRMC,,V,,,,,,,,,,N*53
$GPRMC,,V,,,,,,,,,,N*53
$GPRMC,,V,,,,,,,,,,N*53
$GPRMC,,V,,,,,,,,,,N*53
$GPRMC,,V,,,,,,,,,,N*53
$GPRMC,,V,,,,,,,,,,N*53
$GPRMC,,V,,,,,,,,,,N*53
$GPRMC,,V,,,,,,,,,,N*53
$GPRMC,,V,,,,,,,,,,N*53
$GPRMC,,V,,,,,,,,,,N*53
$GPRMC,,V,,,,,,,,,,N*53
$GPRMC,,V,,,,,,,,,,N*53
$GPRMC,,V,,,,,,,,,,N*53
$GPRMC,,V,,,,,,,,,,N*53
$GPRMC,,V,,,,,,,,,,N*53
$GPRMC,,V,,,,,,,,,,N*53
$GPRMC,,V,,,,,,,,,,N*53
$GPRMC,,V,,,,,,,,,,N*53
$GPRMC,,V,,,,,,,,,,N*53
$GPRMC,,V,,,,,,,,,,N*53
$GPRMC,,V,,,,,,,,,,N*53
$GPRMC,,V,,,,,,,,,,N*53
$GPRMC,,V,,,,,,,,,,N*53
$GPRMC,,V,,,,,,,,,,N*53
$GPRMC,,V,,,,,,,,,,N*53
$GPRMC,,V,,,,,,,,,,N*53
$GPRMC,,V,,,,,,,,,,N*53
$GPRMC,,V,,,,,,,,,,N*53
$GPRMC,,V,,,,,,,,,,N*53
$GPRMC,,V,,,,,,,,,,N*53
$GPRMC,,V,,,,,,,,,,N*53
$GPRMC,,V,,,,,,,,,,N*53
$GPRMC,,V,,,,,,,,,,N*53
$GPRMC,,V,,,,,,,,,,N*53
$GPRMC,,V,,,,,,,,,,N*53
$GPRMC,,V,,,,,,,,,,N*53
$GPRMC,,V,,,,,,,,,,N*53
$GPRMC,,V,,,,,,,,,,N*53
$GPRMC,,V,,,,,,,,,,N*53
$GPRMC,,V,,,,,,,,,,N*53
$GPRMC,,V,,,,,,,,,,N*53
$GPRMC,,V,,,,,,,,,,N*53
$GPRMC,,V,,,,,,,,,,N*53
$GPRMC,,V,,,,,,,,,,N*53
$GPRMC,,V,,,,,,,,,,N*53
$GPRMC,,V,,,,,,,,,,N*53
$GPRMC,,V,,,,,,,,,,N*53
$GPRMC,,V,,,,,,,,,,N*53
$GPRMC,,V,,,,,,,,,,N*53
$GPRMC,,V,,,,,,,,,,N*53
$GPRMC,,V,,,,,,,,,,N*53
$GPRMC,,V,,,,,,,,,,N*53
$GPRMC,,V,,,,,,,,,,N*53
$GPRMC,,V,,,,,,,,,,N*53
$GPRMC,,V,,,,,,,,,,N*53
$GPRMC,,V,,,,,,,,,,N*53
$GPRMC,,V,,,,,,,,,,N*53
$GPRMC,,V,,,,,,,,,,N*53
$GPRMC,,V,,,,,,,,,,N*53
$GPRMC,,V,,,,,,,,,,N*53
$GPRMC,,V,,,,,,,,,,N*53
$GPRMC,,V,,,,,,,,,,N*53
$GPRMC,,V,,,,,,,,,,N*53
$GPRMC,,V,,,,,,,,,,N*53
$GPRMC,,V,,,,,,,,,,N*53
$GPRMC,,V,,,,,,,,,,N*53
$GPRMC,,V,,,,,,,,,,N*53
$GPRMC,,V,,,,,,,,,,N*53
$GPRMC,,V,,,,,,,,,,N*53
$GPRMC,,V,,,,,,,,,,N*53
$GPRMC,,V,,,,,,,,,,N*53
$GPRMC,,V,,,,,,,,,,N*53
$GPRMC,,V,,,,,,,,,,N*53
$GPRMC,,V,,,,,,,,,,N*53
$GPRMC,,V,,,,,,,,,,N*53
$GPRMC,,V,,,,,,,,,,N*53
$GPRMC,,V,,,,,,,,,,N*53
$GPRMC,,V,,,,,,,,,,N*53
$GPRMC,,V,,,,,,,,,,N*53
$GPRMC,,V,,,,,,,,,,N*53
$GPRMC,,V,,,,,,,,,,N*53
$GPRMC,,V,,,,,,,,,,N*53
$GPRMC,,V,,,,,,,,,,N*53
$GPRMC,,V,,,,,,,,,,N*53
$GPRMC,,V,,,,,,,,,,N*53
$GPRMC,,V,,,,,,,,,,N*53
$GPRMC,,V,,,,,,,,,,N*53
$GPRMC,,V,,,,,,,,,,N*53
$GPRMC,,V,,,,,,,,,,N*53
$GPRMC,,V,,,,,,,,,,N*53
$GPRMC,,V,,,,,,,,,,N*53
$GPRMC,,V,,,,,,,,,,N*53
$GPRMC,,V,,,,,,,,,,N*53
$GPRMC,,V,,,,,,,,,,N*53
$GPRMC,,V,,,,,,,,,,N*53
$GPRMC,,V,,,,,,,,,,N*53
$GPRMC,,V,,,,,,,,,,N*53
$GPRMC,,V,,,,,,,,,,N*53
$GPRMC,,V,,,,,,,,,,N*53
$GPRMC,,V,,,,,,,,,,N*53
$GPRMC,,V,,,,,,,,,,N*53
$GPRMC,,V,,,,,,,,,,N*53
$GPRMC,,V,,,,,,,,,,N*53
$GPRMC,,V,,,,,,,,,,N*53
$GPRMC,,V,,,,,,,,,,N*53
$GPRMC,,V,,,,,,,,,,N*53
$GPRMC,,V,,,,,,,,,,N*53
$GPRMC,,V,,,,,,,,,,N*53
$GPRMC,,V,,,,,,,,,,N*53
$GPRMC,,V,,,,,,,,,,N*53
$GPRMC,,V,,,,,,,,,,N*53
$GPRMC,,V,,,,,,,,,,N*53
$GPRMC,,V,,,,,,,,,,N*53
$GPRMC,,V,,,,,,,,,,N*53
$GPRMC,,V,,,,,,,,,,N*53
$GPRMC,,V,,,,,,,,,,N*53
$GPRMC,,V,,,,,,,,,,N*53
$GPRMC,,V,,,,,,,,,,N*53
$GPRMC,,V,,,,,,,,,,N*53
$GPRMC,,V,,,,,,,,,,N*53
$GPRMC,,V,,,,,,,,,,N*53
$GPRMC,,V,,,,,,,,,,N*53
$GPRMC,,V,,,,,,,,,,N*53
$GPRMC,,V,,,,,,,,,,N*53
$GPRMC,,V,,,,,,,,,,N*53
$GPRMC,,V,,,,,,,,,,N*53
$GPRMC,,V,,,,,,,,,,N*53
$GPRMC,,V,,,,,,,,,,N*53
$GPRMC,,V,,,,,,,,,,N*53
$GPRMC,,V,,,,,,,,,,N*53
$GPRMC,,V,,,,,,,,,,N*53
$GPRMC,,V,,,,,,,,,,N*53
$GPRMC,,V,,,,,,,,,,N*53
$GPRMC,,V,,,,,,,,,,N*53
$GPRMC,,V,,,,,,,,,,N*53
$GPRMC,,V,,,,,,,,,,N*53
$GPRMC,,V,,,,,,,,,,N*53
$GPRMC,,V,,,,,,,,,,N*53
$GPRMC,,V,,,,,,,,,,N*53
$GPRMC,,V,,,,,,,,,,N*53
$GPRMC,,V,,,,,,,,,,N*53
$GPRMC,,V,,,,,,,,,,N*53
$GPRMC,,V,,,,,,,,,,N*53
$GPRMC,,V,,,,,,,,,,N*53
$GPRMC,,V,,,,,,,,,,N*53
$GPRMC,112817.00,V,,,,,,,,,,N*71
$GPRMC,112832.00,V,,,,,,,120621,,,N*70
$GPRMC,112847.00,V,,,,,,,120621,,,N*72
$GPRMC,112902.00,V,,,,,,,120621,,,N*72
$GPRMC,112917.00,V,,,,,,,120621,,,N*76
$GPRMC,112932.00,V,,,,,,,120621,,,N*71
$GPRMC,112947.00,V,,,,,,,120621,,,N*73
$GPRMC,113002.00,A,4113.26876,N,00142.65308,E,1.312,3.38,120621,,,A*65
$GPRMC,113017.00,A,4113.26982,N,00142.65252,E,0.359,316.27,120621,,,A*62
$GPRMC,113032.00,A,4113.26288,N,00142.65398,E,0.437,226.11,120621,,,A*6B
$GPRMC,113047.00,A,4113.26303,N,00142.65528,E,0.439,228.33,120621,,,A*66
$GPRMC,113102.00,A,4113.26973,N,00142.65767,E,3.272,31.39,120621,,,A*58
$GPRMC,113117.00,A,4113.25973,N,00142.65454,E,1.855,56.20,120621,,,A*58
$GPRMC,113132.00,A,4113.25923,N,00142.66422,E,1.656,79.86,120621,,,A*54
$GPRMC,113147.00,A,4113.26739,N,00142.67363,E,2.105,114.10,120621,,,A*64
$GPRMC,113202.00,A,4113.27411,N,00142.67366,E,0.757,64.36,120621,,,A*5A
$GPRMC,113217.00,A,4113.27020,N,00142.68199,E,2.296,84.38,120621,,,A*5F
$GPRMC,113232.00,V,,,,,,,120621,,,N*7B
$GPRMC,113247.00,A,4113.24851,N,00142.69484,E,3.597,98.89,120621,,,A*5F
$GPRMC,113302.00,A,4113.25196,N,00142.71164,E,6.386,61.18,120621,,,A*53
$GPRMC,113317.00,V,,,,,,,120621,,,N*7D
$GPRMC,113332.00,A,4113.29158,N,00142.66515,E,10.725,328.66,120621,,,A*57
$GPRMC,113343.00,A,4113.33500,N,00142.63360,E,11.458,331.42,120621,,,A*54
$GPRMC,113358.00,A,4113.38293,N,00142.59649,E,16.880,331.35,120621,,,A*51
$GPRMC,113413.00,A,4113.42384,N,00142.56664,E,4.797,346.22,120621,,,A*6F
$GPRMC,113628.00,A,4113.90168,N,00142.60269,E,36.685,43.45,120621,,,A*62
$GPRMC,113643.00,A,4114.01010,N,00142.75492,E,39.099,50.90,120621,,,A*66
$GPRMC,113728.00,A,4114.18807,N,00143.41496,E,44.824,84.28,120621,,,A*60
$GPRMC,113758.00,A,4114.20767,N,00143.88024,E,35.150,91.49,120621,,,A*62
$GPRMC,113913.00,A,4114.31905,N,00144.96253,E,45.681,72.82,120621,,,A*65
$GPRMC,114143.00,A,4115.11243,N,00147.20355,E,52.042,61.90,120621,,,A*62
$GPRMC,114358.00,A,4114.41319,N,00149.12873,E,37.686,134.96,120621,,,A*5A
$GPRMC,114443.00,A,4114.31501,N,00149.57415,E,32.125,114.81,120621,,,A*5D
$GPRMC,114458.00,A,4114.25007,N,00149.73313,E,28.366,104.00,120621,,,A*50
$GPRMC,115143.00,A,4114.44220,N,00151.73404,E,27.341,64.72,120621,,,A*6E
$GPRMC,115158.00,A,4114.42630,N,00151.85622,E,23.299,142.08,120621,,,A*50
$GPRMC,115413.00,A,4114.74179,N,00152.56282,E,23.632,52.66,120621,,,A*6B
$GPRMC,115828.00,A,4115.16994,N,00153.94461,E,20.383,81.83,120621,,,A*6C
$GPRMC,115843.00,A,4115.22576,N,00154.03794,E,24.897,43.50,120621,,,A*6C
$GPRMC,115858.00,A,4115.30861,N,00154.13829,E,28.690,43.10,120621,,,A*67
$GPRMC,120128.00,A,4115.44494,N,00154.93401,E,16.580,57.37,120621,,,A*6B
$GPRMC,120143.00,A,4115.48489,N,00155.02540,E,20.432,65.87,120621,,,A*6C
$GPRMC,120158.00,A,4115.53651,N,00155.13299,E,26.541,54.31,120621,,,A*64
$GPRMC,120213.00,A,4115.62109,N,00155.22092,E,27.820,356.28,120621,,,A*59
$GPRMC,120243.00,A,4115.67421,N,00155.43323,E,23.477,93.37,120621,,,A*66
$GPRMC,120258.00,A,4115.69741,N,00155.55013,E,21.456,74.11,120621,,,A*6C
$GPRMC,120313.00,A,4115.72989,N,00155.67144,E,21.182,56.08,120621,,,A*64
$GPRMC,120328.00,A,4115.77288,N,00155.81137,E,33.758,67.29,120621,,,A*6C
$GPRMC,120343.00,A,4115.82883,N,00155.98239,E,36.166,66.15,120621,,,A*6F
$GPRMC,120358.00,A,4115.88181,N,00156.18542,E,37.917,77.56,120621,,,A*6C
$GPRMC,120413.00,A,4115.90604,N,00156.37052,E,32.674,79.80,120621,,,A*64
$GPRMC,120428.00,A,4115.93521,N,00156.57188,E,38.851,80.39,120621,,,A*6C
$GPRMC,120458.00,A,4115.99022,N,00157.06398,E,48.329,81.16,120621,,,A*6E
$GPRMC,120513.00,A,4116.01992,N,00157.32133,E,44.551,81.05,120621,,,A*63
$GPRMC,120528.00,A,4116.04571,N,00157.55947,E,42.563,82.15,120621,,,A*60
$GPRMC,120543.00,A,4116.07312,N,00157.78233,E,39.103,82.16,120621,,,A*67
$GPRMC,120558.00,A,4116.09562,N,00158.00315,E,43.635,81.48,120621,,,A*60
$GPRMC,120613.00,A,4116.11379,N,00158.22087,E,37.680,84.74,120621,,,A*66
$GPRMC,120628.00,A,4116.13270,N,00158.42654,E,36.810,83.28,120621,,,A*62
$GPRMC,120643.00,A,4116.15396,N,00158.64027,E,40.737,82.68,120621,,,A*68
$GPRMC,120658.00,A,4116.17646,N,00158.87159,E,41.697,84.69,120621,,,A*60
$GPRMC,120713.00,A,4116.17994,N,00159.09377,E,39.982,91.32,120621,,,A*69
$GPRMC,120728.00,A,4116.17575,N,00159.31415,E,39.413,91.68,120621,,,A*60
$GPRMC,120743.00,A,4116.17126,N,00159.53194,E,39.510,91.54,120621,,,A*6A
$GPRMC,120758.00,A,4116.16689,N,00159.75283,E,39.863,91.82,120621,,,A*60
$GPRMC,120813.00,A,4116.16236,N,00159.95651,E,32.195,91.04,120621,,,A*60
$GPRMC,120843.00,A,4116.15379,N,00200.37417,E,39.760,90.71,120621,,,A*6F
$GPRMC,120858.00,A,4116.16002,N,00200.59443,E,39.510,83.90,120621,,,A*68
$GPRMC,120913.00,A,4116.17996,N,00200.81368,E,39.342,83.83,120621,,,A*6B
$GPRMC,120928.00,A,4116.19910,N,00201.03131,E,39.029,83.73,120621,,,A*67
$GPRMC,120958.00,A,4116.23989,N,00201.47097,E,41.847,83.72,120621,,,A*6A
$GPRMC,121013.00,A,4116.26246,N,00201.71994,E,47.346,83.28,120621,,,A*6C
$GPRMC,121058.00,A,4116.34028,N,00202.48307,E,40.355,77.62,120621,,,A*63
$GPRMC,121228.00,A,4117.36877,N,00203.10353,E,55.429,347.04,120621,,,A*52
$GPRMC,121358.00,A,4118.48408,N,00203.82807,E,51.517,34.09,120621,,,A*65
$GPRMC,121413.00,A,4118.66174,N,00203.97879,E,48.632,31.00,120621,,,A*62
$GPRMC,121428.00,A,4118.81370,N,00204.10109,E,41.732,31.27,120621,,,A*6E
$GPRMC,121443.00,A,4118.96212,N,00204.21986,E,42.301,31.38,120621,,,A*64
$GPRMC,121458.00,A,4119.11149,N,00204.34020,E,41.356,31.24,120621,,,A*60
$GPRMC,121528.00,A,4119.41194,N,00204.57931,E,41.437,31.43,120621,,,A*6E
$GPRMC,121558.00,A,4119.71121,N,00204.82867,E,43.998,38.54,120621,,,A*6B
$GPRMC,121658.00,A,4120.09067,N,00205.66561,E,45.600,65.38,120621,,,A*64
$GPRMC,121758.00,A,4120.52799,N,00206.31733,E,39.688,44.98,120621,,,A*6B
$GPRMC,121813.00,A,4120.64518,N,00206.47318,E,39.900,45.37,120621,,,A*62
$GPRMC,121828.00,A,4120.76185,N,00206.62944,E,39.269,45.53,120621,,,A*6B
$GPRMC,121843.00,A,4120.87883,N,00206.78497,E,40.182,45.19,120621,,,A*69
$GPRMC,121858.00,A,4120.99692,N,00206.94205,E,40.361,44.83,120621,,,A*60
$GPRMC,121913.00,A,4121.10751,N,00207.11136,E,40.089,47.08,120621,,,A*6A
$GPRMC,121958.00,A,4121.45935,N,00207.57354,E,37.524,44.65,120621,,,A*67
$GPRMC,122013.00,A,4121.57056,N,00207.72662,E,39.102,45.17,120621,,,A*60
$GPRMC,122028.00,A,4121.68760,N,00207.88054,E,39.564,42.75,120621,,,A*67
$GPRMC,122058.00,V,,,,,,,120621,,,N*77
$GPRMC,122113.00,A,4121.97770,N,00208.24877,E,26.992,45.00,120621,,,A*61
$GPRMC,122128.00,A,4122.03910,N,00208.33174,E,22.952,44.60,120621,,,A*6C
$GPRMC,122143.00,A,4122.10263,N,00208.42111,E,21.903,45.56,120621,,,A*6A
$GPRMC,122158.00,A,4122.16462,N,00208.51020,E,22.794,47.08,120621,,,A*6A
$GPRMC,122213.00,A,4122.22976,N,00208.59586,E,15.973,48.36,120621,,,A*69
$GPRMC,122228.00,A,4122.24670,N,00208.61321,E,0.057,,120621,,,A*72
$GPRMC,122243.00,A,4122.24993,N,00208.61644,E,3.555,56.59,120621,,,A*5E
$GPRMC,122258.00,A,4122.27815,N,00208.65711,E,10.045,44.38,120621,,,A*6F
$GPRMC,122313.00,A,4122.31407,N,00208.70419,E,12.998,53.67,120621,,,A*61
$GPRMC,122328.00,A,4122.35731,N,00208.76624,E,17.233,49.98,120621,,,A*65
$GPRMC,122343.00,A,4122.43337,N,00208.86415,E,29.749,44.41,120621,,,A*68
$GPRMC,122358.00,V,,,,,,,120621,,,N*74
$GPRMC,122413.00,A,4122.53464,N,00209.00472,E,0.016,,120621,,,A*79
$GPRMC,,V,,,,,,,,,,N*53
$GPRMC,,V,,,,,,,,,,N*53
$GPRMC,,V,,,,,,,,,,N*53
$GPRMC,,V,,,,,,,,,,N*53
$GPRMC,,V,,,,,,,,,,N*53
$GPRMC,,V,,,,,,,,,,N*53
$GPRMC,,V,,,,,,,,,,N*53
$GPRMC,,V,,,,,,,,,,N*53
$GPRMC,,V,,,,,,,,,,N*53
$GPRMC,,V,,,,,,,,,,N*53
$GPRMC,,V,,,,,,,,,,N*53
$GPRMC,142806.00,V,,,,,,,,,,N*74
$GPRMC,142821.00,V,,,,,,,,,,N*71
$GPRMC,142836.00,V,,,,,,,120621,,,N*71
$GPRMC,142847.00,V,,,,,,,120621,,,N*77
$GPRMC,142902.00,V,,,,,,,120621,,,N*77
$GPRMC,142917.00,V,,,,,,,120621,,,N*73
$GPRMC,142932.00,A,4123.30317,N,00208.98417,E,5.841,300.47,120621,,,A*64
$GPRMC,142947.00,V,,,,,,,120621,,,N*76
$GPRMC,143002.00,A,4123.29890,N,00208.96609,E,13.609,315.83,120621,,,A*59
$GPRMC,143017.00,A,4123.35794,N,00208.90879,E,13.311,318.04,120621,,,A*5A
$GPRMC,143032.00,A,4123.37609,N,00208.84115,E,7.391,287.38,120621,,,A*69
$GPRMC,143047.00,A,4123.38601,N,00208.82168,E,7.179,267.59,120621,,,A*6D
$GPRMC,143102.00,A,4123.39332,N,00208.74489,E,19.400,281.15,120621,,,A*5E
$GPRMC,143117.00,A,4123.40634,N,00208.63541,E,19.287,271.35,120621,,,A*50
$GPRMC,143132.00,A,4123.43048,N,00208.53382,E,18.087,291.21,120621,,,A*5B
$GPRMC,143147.00,A,4123.42755,N,00208.48033,E,8.987,257.99,120621,,,A*61
$GPRMC,143202.00,A,4123.37999,N,00208.43514,E,7.866,231.21,120621,,,A*66
$GPRMC,143217.00,A,4123.36814,N,00208.41222,E,6.200,266.97,120621,,,A*63
$GPRMC,143232.00,A,4123.34902,N,00208.37257,E,7.888,222.78,120621,,,A*69
$GPRMC,143247.00,A,4123.31479,N,00208.31847,E,4.425,241.09,120621,,,A*69
$GPRMC,143302.00,A,4123.28565,N,00208.27584,E,10.849,198.32,120621,,,A*54
$GPRMC,143317.00,A,4123.25229,N,00208.22905,E,15.171,215.94,120621,,,A*5F
$GPRMC,143332.00,A,4123.20256,N,00208.14834,E,18.162,224.49,120621,,,A*5E
$GPRMC,143347.00,A,4123.09901,N,00208.11844,E,31.431,177.46,120621,,,A*5E
$GPRMC,143402.00,A,4123.09651,N,00208.02769,E,18.015,222.46,120621,,,A*5A
$GPRMC,143417.00,A,4123.08408,N,00207.97127,E,9.414,215.93,120621,,,A*67
$GPRMC,143432.00,V,,,,,,,120621,,,N*78
$GPRMC,143447.00,A,4122.99634,N,00207.77285,E,17.748,228.81,120621,,,A*5B
$GPRMC,143502.00,A,4122.95901,N,00207.71730,E,4.906,227.76,120621,,,A*62
$GPRMC,143517.00,A,4122.95943,N,00207.71411,E,0.169,,120621,,,A*7D
$GPRMC,143532.00,A,4122.95758,N,00207.71077,E,8.131,228.34,120621,,,A*6E
$GPRMC,143547.00,A,4122.93942,N,00207.68581,E,0.492,231.87,120621,,,A*6F
$GPRMC,143602.00,A,4122.89038,N,00207.69661,E,22.224,163.21,120621,,,A*5D
$GPRMC,143617.00,A,4122.81895,N,00207.72235,E,4.958,171.45,120621,,,A*64
$GPRMC,143632.00,A,4122.79002,N,00207.67556,E,13.974,165.64,120621,,,A*5A
$GPRMC,143647.00,A,4122.75735,N,00207.71073,E,13.031,283.84,120621,,,A*5F
$GPRMC,143847.00,V,,,,,,,120621,,,N*76
$GPRMC,143902.00,A,4121.92436,N,00208.10160,E,3.677,166.91,120621,,,A*69
$GPRMC,143917.00,A,4121.88531,N,00208.09931,E,16.197,197.01,120621,,,A*5E
$GPRMC,143932.00,A,4121.83332,N,00208.04719,E,6.971,225.50,120621,,,A*61
$GPRMC,143947.00,A,4121.81763,N,00208.02469,E,13.778,224.26,120621,,,A*50
$GPRMC,144002.00,A,4121.79548,N,00207.99428,E,0.513,224.03,120621,,,A*61
$GPRMC,144017.00,A,4121.77956,N,00207.97411,E,9.132,224.94,120621,,,A*6C
$GPRMC,144032.00,A,4121.73336,N,00207.91588,E,19.665,219.73,120621,,,A*57
$GPRMC,144047.00,A,4121.65454,N,00207.82092,E,30.727,216.12,120621,,,A*59
$GPRMC,144102.00,A,4121.54907,N,00207.68282,E,39.280,224.61,120621,,,A*53
$GPRMC,144117.00,A,4121.44162,N,00207.55620,E,20.550,206.45,120621,,,A*5B
$GPRMC,144132.00,V,,,,,,,120621,,,N*7A
$GPRMC,144202.00,A,4121.14990,N,00207.14972,E,34.251,226.43,120621,,,A*56
$GPRMC,144217.00,A,4121.05283,N,00207.00432,E,33.464,230.97,120621,,,A*5E
$GPRMC,144232.00,A,4120.95494,N,00206.86833,E,34.412,225.60,120621,,,A*59
$GPRMC,144247.00,A,4120.84382,N,00206.72055,E,39.235,224.94,120621,,,A*5C
$GPRMC,144302.00,A,4120.72577,N,00206.56340,E,39.361,225.03,120621,,,A*57
$GPRMC,144317.00,A,4120.60998,N,00206.40852,E,40.001,225.28,120621,,,A*50
$GPRMC,144517.00,A,4119.74098,N,00204.84268,E,50.745,221.65,120621,,,A*52
$GPRMC,144532.00,A,4119.56724,N,00204.68790,E,50.598,211.02,120621,,,A*55
$GPRMC,144547.00,A,4119.38680,N,00204.54471,E,50.187,211.41,120621,,,A*5E
$GPRMC,144602.00,A,4119.20842,N,00204.40231,E,49.017,210.87,120621,,,A*59
$GPRMC,144617.00,A,4119.03778,N,00204.26739,E,45.935,209.39,120621,,,A*5F
$GPRMC,144632.00,A,4118.86218,N,00204.12695,E,51.745,211.55,120621,,,A*58
$GPRMC,144647.00,A,4118.68132,N,00203.98166,E,50.384,211.24,120621,,,A*51
$GPRMC,144702.00,A,4118.49876,N,00203.82694,E,51.315,214.09,120621,,,A*59
$GPRMC,144832.00,A,4117.46375,N,00203.06184,E,52.456,167.12,120621,,,A*59
$GPRMC,144917.00,A,4116.79829,N,00203.11153,E,50.477,198.57,120621,,,A*5C
$GPRMC,144932.00,A,4116.61287,N,00202.97992,E,50.678,216.43,120621,,,A*5B
$GPRMC,144947.00,A,4116.46422,N,00202.78287,E,50.595,233.09,120621,,,A*52
$GPRMC,145002.00,A,4116.36278,N,00202.53701,E,50.641,250.08,120621,,,A*59
$GPRMC,145047.00,A,4116.28095,N,00201.80334,E,42.615,263.42,120621,,,A*55
$GPRMC,145102.00,A,4116.25771,N,00201.57140,E,43.742,263.13,120621,,,A*58
$GPRMC,145117.00,A,4116.23671,N,00201.32676,E,44.048,265.33,120621,,,A*54
$GPRMC,145132.00,A,4116.21588,N,00201.09347,E,42.542,263.01,120621,,,A*55
$GPRMC,145202.00,A,4116.16286,N,00200.54583,E,50.498,264.25,120621,,,A*5B
$GPRMC,145217.00,A,4116.16143,N,00200.27105,E,49.127,271.73,120621,,,A*55
$GPRMC,145232.00,A,4116.16832,N,00200.04317,E,39.919,271.71,120621,,,A*5D
$GPRMC,145247.00,A,4116.17293,N,00159.82325,E,39.921,272.06,120621,,,A*57
$GPRMC,145302.00,A,4116.17571,N,00159.60237,E,39.914,271.54,120621,,,A*50
$GPRMC,145317.00,A,4116.17858,N,00159.38073,E,40.177,271.48,120621,,,A*53
$GPRMC,145332.00,A,4116.18305,N,00159.15064,E,42.980,271.78,120621,,,A*50
$GPRMC,145347.00,A,4116.18728,N,00158.91836,E,37.445,268.09,120621,,,A*53
$GPRMC,145402.00,A,4116.16606,N,00158.69332,E,41.624,260.73,120621,,,A*5F
$GPRMC,145417.00,A,4116.14228,N,00158.46712,E,41.897,262.87,120621,,,A*55
$GPRMC,145432.00,A,4116.11917,N,00158.23980,E,37.790,262.32,120621,,,A*51
$GPRMC,145447.00,A,4116.11361,N,00158.05873,E,33.875,288.72,120621,,,A*51
$GPRMC,145502.00,A,4116.13748,N,00157.88040,E,38.521,235.80,120621,,,A*52
$GPRMC,145517.00,A,4116.06760,N,00157.66540,E,47.216,257.99,120621,,,A*5A
$GPRMC,145532.00,A,4116.03666,N,00157.39562,E,49.773,262.45,120621,,,A*5A
$GPRMC,145547.00,A,4116.00622,N,00157.12150,E,49.712,261.07,120621,,,A*55
$GPRMC,145602.00,A,4115.97680,N,00156.84720,E,49.972,261.66,120621,,,A*52
$GPRMC,145647.00,A,4115.86314,N,00156.03262,E,49.773,248.22,120621,,,A*53
$GPRMC,145702.00,A,4115.78253,N,00155.77824,E,49.654,251.97,120621,,,A*5A
$GPRMC,145847.00,A,4115.49842,N,00154.11730,E,44.789,230.55,120621,,,A*52
$GPRMC,145902.00,V,,,,,,,120621,,,N*70
$GPRMC,145917.00,V,,,,,,,120621,,,N*74
$GPRMC,145932.00,A,4115.13543,N,00153.55960,E,43.800,207.99,120621,,,A*53
$GPRMC,145947.00,A,4114.99562,N,00153.40588,E,42.026,232.51,120621,,,A*50
$GPRMC,150002.00,V,,,,,,,120621,,,N*7D
$GPRMC,150017.00,V,,,,,,,120621,,,N*79
$GPRMC,150032.00,V,,,,,,,120621,,,N*7E
$GPRMC,150232.00,A,4114.71120,N,00151.13359,E,7.683,288.93,120621,,,A*60
$GPRMC,150302.00,A,4114.71229,N,00151.13241,E,0.265,285.01,120621,,,A*6D
$GPRMC,150517.00,A,4114.72496,N,00149.10612,E,52.268,259.49,120621,,,A*51
$GPRMC,150547.00,A,4114.84428,N,00148.59631,E,48.219,295.56,120621,,,A*56
$GPRMC,150702.00,A,4115.14873,N,00147.26505,E,56.603,249.16,120621,,,A*59
$GPRMC,150747.00,A,4114.69801,N,00146.61774,E,49.675,232.24,120621,,,A*52
$GPRMC,150802.00,A,4114.59516,N,00146.39038,E,47.944,244.75,120621,,,A*50
$GPRMC,150832.00,A,4114.52577,N,00145.96836,E,35.113,275.16,120621,,,A*57
$GPRMC,150902.00,A,4114.60902,N,00145.60030,E,33.779,235.30,120621,,,A*51
$GPRMC,151102.00,A,4114.20754,N,00143.93375,E,44.250,272.71,120621,,,A*51
$GPRMC,151117.00,A,4114.20579,N,00143.68338,E,44.697,266.62,120621,,,A*5D
$GPRMC,151132.00,A,4114.19078,N,00143.43631,E,45.139,264.30,120621,,,A*56
$GPRMC,151147.00,A,4114.16576,N,00143.20060,E,39.310,259.31,120621,,,A*5A
$GPRMC,151202.00,A,4114.12064,N,00142.99735,E,38.952,248.25,120621,,,A*56
$GPRMC,151232.00,A,4113.92540,N,00142.62756,E,35.474,224.77,120621,,,A*51
$GPRMC,151332.00,A,4113.65015,N,00142.36309,E,25.815,108.47,120621,,,A*56
$GPRMC,151347.00,A,4113.61097,N,00142.51673,E,30.311,109.03,120621,,,A*59
$GPRMC,151402.00,A,4113.56997,N,00142.67222,E,27.864,109.67,120621,,,A*5A
$GPRMC,151417.00,A,4113.53895,N,00142.77287,E,13.103,166.41,120621,,,A*54
$GPRMC,151502.00,A,4113.41042,N,00142.56871,E,13.539,144.96,120621,,,A*57
$GPRMC,151517.00,A,4113.35079,N,00142.61816,E,18.070,149.55,120621,,,A*5C
$GPRMC,151532.00,A,4113.28650,N,00142.66815,E,14.426,148.52,120621,,,A*53
$GPRMC,151547.00,A,4113.27641,N,00142.67377,E,0.031,,120621,,,A*73
$GPRMC,151602.00,A,4113.26552,N,00142.68328,E,11.888,150.19,120621,,,A*5C
$GPRMC,151617.00,A,4113.21885,N,00142.71400,E,11.744,155.37,120621,,,A*5B
$GPRMC,151632.00,A,4113.19031,N,00142.72892,E,0.023,,120621,,,A*79
$GPRMC,151647.00,A,4113.17981,N,00142.72711,E,7.845,231.37,120621,,,A*66
$GPRMC,151702.00,A,4113.17836,N,00142.70492,E,3.775,340.60,120621,,,A*6C
$GPRMC,151717.00,A,4113.18228,N,00142.68790,E,5.539,245.21,120621,,,A*67
$GPRMC,,V,,,,,,,,,,N*53
$GPRMC,151816.00,V,,,,,,,,,,N*77
$GPRMC,151831.00,V,,,,,,,120621,,,N*74
